operator,name,provincia,addr:city,addr:street,addr:housenumber,lon,lat,addr:postcode,chiusura,note1,note2
3 M SRL,PANINOTECA,RM,Roma,Via Quintino Sella,53,12.4957291,41.9076898,00187,SABATO E DOMENICA,,
4.5 IL BISTROT SRL,4.5 IL BISTROT,RM,Roma,Viale America,3,12.4615623,41.8317475,00144,MAI,,
4.5 IL BISTROT SRL,4.5 IL BISTROT RISTORANTE,RM,Roma,Via Amsterdam,140,12.4495265,41.8231537,00144,DOMENICA,,
A E V SRL,BLACK DIAMOND CAFE',RM,Roma,Viale Beethoven,64/66,12.467229,41.8339338,00144,DOMENICA,,
A G SRLS,PRONTO CHEF,RM,Roma,Viale Città D'europa,630/632,12.448813,41.8212913,00144,MAI,,
A. E G. CAFFE' SAS DI ALLEGRINI ROBERTO S.A.S.,CAFFE TORRINO,RM,Roma,Piazzale Cina,55/56,12.4328406,41.8078666,00144,DOMENICA,,
A.E.M.M.A. SRL,IL CHICCO E IL CALICE,RM,Roma,Viale Europa,288,12.4691938,41.8308093,00144,DOMENICA,,
ABA SRL,IL GUSTO IN PIAZZA BAR,RM,Roma,Piazza Regina Margherita,25/26,12.5053962,41.9137054,00198,MAI,,
ACQUA E FARINA SRL,ALICE PIZZA,RM,Roma,Via Torre Di Mezzavia,35,12.5948862,41.8374253,00173,LUNEDI',,
ACRI CYSIVE SRL,L'INSALATA RICCA RISTORANTE,RM,Roma,Via Francesco Acri,50/52,12.4823937,41.8434096,00142,MAI,,
ADETA SRL,CONAD SUPERMERCATO,RM,Roma,Via Del Torraccio Di Torrenova,182/B,12.6278951,41.8666194,00133,DOMENICA,,
AELLE IN SRL,CRUCIANI GASTRONOMIA,RM,Roma,Piazzale Delle Provincie,14/16,12.521177137250914,41.909366500000004,00162,DOMENICA,,
AHMED KEDR,RE DELLA PIZZA TAVOLA CALDA PIZZERIA,RM,Roma,Via Domenico De Dominicis,1,12.5347767,41.9009277,00159,MAI,,
AIDA SRL,AIDA SUPERMERCATI,RM,Roma,Via Di Rocca Cencia,68,12.6949397,41.881937,00132,MAI,,
AIELLO DANIELE,BAR IL GALEONE,RM,Roma,Via Della Lega Lombarda,53,12.5253453,41.9085614,00162,DOMENICA,,
AL DISCO VOLANTE SRL,DISCO VOLANTE RISTORANTE,RM,Roma,Via Alessandria,50,12.5005346,41.9105957,00198,MAI,,
AL FORNO DELLA SOFFITTA SRL,AL FORNO DELLA SOFFITTA RISTORANTE PIZZERIA,RM,Roma,Via Piave,62/64,12.4219779,41.6581424,00187,MAI,,
AL SA ALIMENTARI SRL,CARREFOUR MARKET,RM,Roma,Viale Giulio Agricola,104/108,12.5606269,41.8546679,00174,MAI,,
ALBA SRL,CARREFOUR,RM,Roma,Via Francesco Carrara,28,12.4746954,41.9123859,00196,MAI,,
ALBA SRL,CARREFOUR,RM,Roma,Via Degli Orti Della Farnesina,83,12.4639611,41.9393964,00135,MAI,,
ALBA SRL,CARREFOUR EXPRESS,RM,Roma,Via Dei Cestari,42,12.47736,41.8969468,00186,MAI,,
ALBA SRL,CARREFOUR MARKET,RM,Roma,Via Cassia,764,12.4265864,41.9746287,00189,MAI,,
ALBA SRL,CARREFOUR EXPRESS,RM,Roma,Via Filippo Civinini,54,12.4813168,41.9247874,00197,MAI,,
ALBI SRLS,CAFE ROUGE,RM,Roma,Via Dell'Amba Aradam,19,12.5014101,41.8845867,00184,SABATO E DOMENICA,,
ALE E ALE STREET FOOD SRLS,ALE E ALE STREET FOOD FROM PUGLIA,RM,Roma,Via Del Gazometro,43255,12.4790154,41.8716321,00154,DOMENICA,,
ALEO R. G. & C. SAS,NATURAL BAR,RM,Roma,Viale Regina Margherita,167,12.5053302,41.9140578,00198,DOMENICA,,
ALEXANDER BAR SRL,ALEXANDER BAR,RM,Roma,Via Di Portonaccio,124,12.5345194,41.9074398,00159,DOMENICA,,
ALFA SRL,CONAD,RM,Roma,Via Marco Celio Rufo,22,12.5523963,41.8654506,00175,MAI,,
ALIMENTARI BORSIERI SAS PIERINI E. E C.,ALIMENTARI BORSIERI,RM,Roma,Via Pietro Borsieri,9/A/11,12.4613179,41.9130953,00195,DOMENICA,,
ALIMENTARI COLLATINA  SRL,IPERCARNI,RM,Roma,Viale Alessandrino,318,12.5801753,41.8721773,00172,MAI,,
ALIMENTARI DANDINI ARTURO SNC E C,CONAD,RM,Roma,Via Campi D'Annibale,110,12.7143518,41.7607926,00168,MAI,,
ALIMENTARI DI SANTE LUCA,ALIMENTARI DI SANTE LUCA,RM,Roma,Via Piero Foscari,111,12.5175988,41.9516195,00139,DOMENICA,,
ALIMENTARI EREDI SALVATORI GIOVANNI SAS,ALIMENTARI,RM,Roma,Viale Dei Salesiani,92/94,12.5667015,41.857446,00175,MAI,,
ALIMENTARI SANTECECCA,ALIMENTARI SANTECECCA,RM,Roma,Via Antonino Lo Surdo,23/A/B,12.4711217,41.8631259,00146,DOMENICA,,
ALIMENTARIA ST3 SRL,ALIMENTARIA ST3,RM,Roma,Via Di Casal Dei Pazzi,53,12.5693703,41.9275957,00156,DOMENICA,,
ALMA CATERING SRL,CAFFE' TORINO,RM,Roma,Via Torino,40/A,12.4955986,41.9014889,00184,SABATO E DOMENICA,,
AMADIO TIZIANO,MACELLERIA AMADIO,RM,Roma,Via Luciano Manara,43445,12.4703803,41.8879394,00153,SABATO E DOMENICA,,
AMG 2011 SRL,BAR DELLA RABBIA,RM,Roma,Via Imperatore Tiberio,109,,,00145,MAI,,
AMURA E CO SRL,RISTORANTE SUGHETTO,RM,Roma,Via Del Portico D'ottavia,1/C,12.4783778,41.8923774,00186,SABATO,,
ANDRACCHIO FRANCESCO,PASTICCERIA ANDRACCHIO BAR,RM,Roma,Via Alessandro Severo,224,12.4876164,41.8528984,00145,MAI,,
ANDRACCHIO GIUSEPPE CAFFE',CAFFE ANDRACCHIO,RM,Roma,Via Cornelio Magni,33/35,12.4974888,41.8653681,00147,DOMENICA,,
ANDRACCHIO GIUSEPPE CAFFE',BAR CAFFE' ANDRACCHIO,RM,Roma,Via Cristoforo Colombo,149,12.4945725,41.8571439,00147,DOMENICA,,
ANDREOTTI SRL,PASTICCERIA CAFFETTERIA ANDREOTTI,RM,Roma,Via Ostiense,54/B,12.4797813,41.8716985,00154,MAI,,
ANNA & GIPPO SNC,ALICE,RM,Roma,Via Palermo,46,12.4923408,41.8991009,00184,DOMENICA,,
ANNA MARIA BONVENTRE,AL 127 CAFFETTERIA,RM,Roma,Viale Giulio Cesare,127,12.4586746,41.9093489,00192,DOMENICA,,
ANTAKA DI MOHAMED A.M.,ANTAKA,RM,Roma,Via Aosta,11,12.5141944,41.8827088,00182,MAI,,
ANTICA BIRRERIA SRL,ANTICA BIRRERIA PERONI DAL 1906,RM,Roma,Via Di San Marcello,19,12.4824596,41.8987739,00187,DOMENICA,,
ANTONACCI MARCO,SAPORI DI UNA VOLTA,RM,Roma,Via Andrea Solario,64,12.4867442,41.8379542,00142,DOMENICA,,
ANTONINI LORENA,ANTONINI MARKET,RM,Roma,Via Monte Cervialto,7,12.5262362,41.9504979,00139,MAI,,
ANZ SRL,VINERIA ANZUINI,RM,Roma,Viale Europa,226/278,,,00144,DOMENICA,,
APPLE 299 SRLS,APPLE 299,RM,Roma,Viale Europa,299,12.4691938,41.8308093,00144,SABATO E DOMENICA,,
ARCA SRL,CAFFÈ BELSITO,RM,Roma,Via Rotterdam,43409,12.4535675,41.8205021,00144,DOMENICA,,
ARCO SRL,IPERTRISCOUNT,RM,Roma,Via Dell'Arco Di Travertino,88,12.534146,41.8650136,00178,MAI,,
ARMENIO SNC DI ARMENIO E C,CAFFE' PIAVE,RM,Roma,Via Piave,2/E,12.4219779,41.6581424,00187,MAI,,
AROMA EUR SRL,JUST CASINI,RM,Roma,Viale Della Civilta Del Lavoro,14/34,12.4676864,41.8361219,00144,MAI,,
AROMA EUR SRL,EUR CAFFE CASINI 2 BAR,RM,Roma,Via Chopin,27/33,12.4679361,41.8348906,00144,MAI,,
ARTE E SFIZIO SRL,ARTE E SFIZIO,RM,Roma,Via Sistina,14/A/D,12.4859016,41.9046819,00187,MAI,,
ASAR MOHAMED AYMAN,PIZZA IN RISTORANTE,RM,Roma,Viale Di Trastevere,100/102,12.4720747,41.886744,00153,MAI,,
ATLANTIDE SRL,GRAN CAFFE' LA CAFFETTIERA,RM,Roma,Piazza Di Pietra,65,12.4798402,41.9000357,00186,MAI,,
AUGUSTA SRL,KFC - KENTUCKY FRIED CHICKEN,RM,Roma,Via Collatina,858,12.6610072,41.9156089,00132,MAI,ROMA EST,
AZZURRA SRL,PEWEX SUPERMERCATO,RM,Roma,Via Simonetta Landucci Tosi,27,12.3978735,41.9588574,00135,MAI,C.C. GULLIVER,
AZZURRA SRL,PEWEX SUPERMERCATO,RM,Roma,Via Filippo Serafini,73,12.5746158,41.8616058,00173,MAI,,
B. & A. SRL,BURRO E ALICI PANINOTECA,RM,Roma,Via Mercede,34,12.4821672,41.903293,00187,DOMENICA,,
BAGHETTIAMO SRL,BAGHETTIAMO,RM,Roma,Via Toscana,40,12.4908031,41.9098917,00187,SABATO E DOMENICA,,
BAKERY ROMA SRLS,BAKERY,RM,Roma,Circonvallazione Ostiense,158,12.4934056,41.8673282,00154,MAI,,
BAR DEL MEF SRLS,BAR DEL MEF,RM,Roma,Via Pastrengo,1,10.208617,43.9281856,00185,SABATO E DOMENICA,,
BAR DELLA FONTE SRLS,BAR DELLA FONTE,RM,Roma,Via Andrea Meldola,186/188,12.507107,41.823513,00143,DOMENICA,,
BAR DELLE VILLE SAS,BAR DELLE VILLE,RM,Roma,Via Nomentana,303,12.5196043,41.9229722,00162,DOMENICA,,
BAR FRATELLI IACOVONE SNC DI IACOVONE,BAR FRATELLI,RM,Roma,Via Nomentana,99,12.5133326,41.917478,00161,DOMENICA,,
BAR GOITO SRLS DI NARDONE NICOLA,BAR GOITO,RM,Roma,Via Goito,31/33,12.4989209,41.9072304,00185,DOMENICA,,
BAR PRATI SNC DI G. ANGELONI E L. IACONI,PRATI BAR,RM,Roma,Via Silla,106/108,12.4602272,41.9068509,00192,DOMENICA,,
BAR SOLE & FIORE SRLS,BAR SOLE & FIORE,RM,Roma,Via Carlo Citerni,45/47,12.4931446,41.8679018,00154,DOMENICA,,
BAR TAVOLA CALDA ROMAGNOLI SRL,BAR TAVOLA CALDA,RM,Roma,Via Nizza,69 C/D,12.5002095,41.912433,00198,DOMENICA,,
BAR TORTORA SNC,TORTORA BAR,RM,Roma,Via Giandomenico Romagnosi,5,12.502125,41.6674505,00196,SABATO E DOMENICA,,
BARCOLLO SRL,BAR COLLO,RM,Roma,Viale Gino Cervi,14,12.5331772,41.9632348,00139,DOMENICA,,
BCL SAS DI LEONE FABIO & C,TAZZA D'ORO BAR,RM,Roma,Via Ostiense,133/C,12.4789164,41.8639051,00154,DOMENICA,,
BELLI RISTORAZIONE SRL,FUOCO,RM,Roma,Via Cicerone,34,12.4678864,41.9084113,00193,MAI,,
BEMA SRL,AL BELEGI BAR,RM,Roma,Via Duccio Di Buoninsegna,115,12.4900693,41.8297961,00142,DOMENICA,,
BENECASA SRL,SIMPLY MARKET,RM,Roma,Via Fabio Massimo,35/37,12.4622124,41.9088108,00192,MAI,,
BERNARDINI EZIO,CAFFE' BERNARDINI,RM,Roma,Piazza Ippolito Nievo,20,12.467085707648954,41.87970385,00153,MAI,,
BERNARDO ALESSANDRO,PIZZERIA GLI ARTISTI,RM,Roma,Via Salaria,121/F/G,12.4985167,41.9195328,00198,SABATO E DOMENICA,,
BEST FRIEND'S SRLS,INCONTRIAMOCI BAR,RM,Roma,Via Nomentana,335F,12.5196043,41.9229722,00162,DOMENICA,,
BEZZI PIZZA SNC DI MARCO BEZZI E ALESSANDRA BEZZI,BEZZI PIZZA RISTORANTE PIZZERIA,RM,Roma,Via Messina,23,12.5026515,41.9110535,00198,SABATO E DOMENICA,,
BIG VALE SRL,PIZZA CINQUE,RM,Roma,Via Cicerone,76,12.4678649,41.9082617,00193,MAI,,
BINARIO ZERO SRLS,BINARIO ZERO CAFFE' BAR,RM,Roma,Via Marsala,56,12.5041579,41.901252,00185,MAI,,
BINO SRL,IPERCARNI SUPERMERCATO,RM,Roma,Via Palombarense,565,12.6187733,41.9684004,00131,MAI,,
BINO SRL,IPERCARNI SUPERMERCATO,RM,Roma,Via Di Casal Del Marmo,329,12.396822299999997,41.9497935,00135,MAI,,
BIO SNACK SRL,BIO SNACK,RM,Roma,Via Della Scrofa,53,12.4748827,41.9001522,00186,MAI,,
BISTRO 72 SRLS,BAR DESAN,RM,Roma,Via Sicilia,149/151,12.4893577,41.9081518,00187,DOMENICA,,
BISTROT 36 DI GABRIELLI MARIO,BISTROT 36,RM,Roma,Via Leopoldo Traversi,17,12.4931446,41.8679018,00154,SABATO E DOMENICA,,
BLB SRL,PIZZERIA I SUPPLI',RM,Roma,Via Di San Francesco A Ripa,137,12.471737,41.8871251,00153,DOMENICA,,
BLOMMA SRL,CONAD SUPERMERCATO,RM,Roma,Via Tommaso Da Celano,78,12.5154678,41.8711875,00179,MAI,,
BOLOGNESI CRISTIANO,RISTORANTE DA MASSI,RM,Roma,Via Della Scala,34/A/B,12.4687216,41.8903798,00153,MAI,,
BORGONOVO SRL,PIZZERIA ALICE PIZZA,RM,Roma,Viale Regina Margherita,245,12.5053302,41.9140578,00198,DOMENICA,,
BORGOROSSO SRL,ALICE PIZZA,RM,Roma,Via Appia Nuova,450,12.5221156,41.874949,00181,MAI,,
BRADANINI RITA,ALIMENTARI,RM,Roma,Via Del Calice,35,12.5642814,41.8316419,00178,DOMENICA,,
BRICK SRL,CONAD SUPERMERCATO,RM,Roma,Via Cardinal Massimi,3,,,00167,MAI,,
BROTHERS DI LOMBARDO G.SNC,VAGABONDI IN MOTO CAFFE',RM,Roma,Via Ancona,45,12.501792,41.9099951,00198,MAI,,
BU.CA SRL,QUARTO,RM,Roma,Via Crescenzio,52,12.4659426,41.9055688,00193,MAI,,
BU.CA SRL,PORTO,RM,Roma,Via Crescenzio,56,12.4635335,41.9058688,00193,DOMENICA,,
BUCHETTO SRL,ROSSOPOMODORO RISTORANTE PIZZERIA,RM,Roma,Piazza Monte Grappa,1,12.4695852,41.9179588,00195,MAI,,
BUSCAINI ANGELO SRL,PIM SUPERMERCATO,RM,Roma,Via Di Bravetta,403,12.4253329,41.8756424,00164,MAI,,
BUSCAINI ANGELO SRL,PIM SUPERMERCATO,RM,Roma,Via Felice Bellotti,2,12.4405604,41.8571919,00151,MAI,,
BUSCAINI ANGELO SRL,PIM SUPERMERCATO,RM,Roma,Via Igea,42,12.4424793,41.9347876,00135,MAI,,
BUSCAINI ANGELO SRL,PIM SUPERMERCATO,RM,Roma,Via Di Torrevecchia,590,12.4110246,41.9225752,00168,MAI,,
BUSCAINI ANGELO SRL,PIM SUPERMERCATO,RM,Roma,Via Di Torrevecchia,309/313,12.4128615,41.9239219,00168,MAI,,
BUSCAINI ANGELO SRL,PIM SUPERMERCATO,RM,Roma,Via Pietro Maffi,114,12.4204038,41.9265568,00168,MAI,,
BUSCAINI ANGELO SRL,IPERFAMILY,RM,Roma,Via Di Torrevecchia,1050,12.40275195869216,41.91321055,00168,MAI,,
BUSCAINI ANGELO SRL,PIM SUPERMERCATO,RM,Roma,Via Trionfale,8044,12.4277732,41.9373887,00135,MAI,,
BUSCAINI ANGELO SRL,PIM SUPERMERCATO,RM,Roma,Via Portuense,265,12.4467389,41.8569599,00149,MAI,,
BUSCAINI ANGELO SRL,ALPIM,RM,Roma,Via Oderisi Da Gubbio,133,12.4652396,41.8653157,00146,MAI,,
BUSCAINI ANGELO SRL,PIM SUPERMERCATO,RM,Roma,Via Piedicavallo,37,12.3602893,41.923930150000004,00166,MAI,,
BUSCAINI SUPERMERCATI TRIONFALE SRL,AGORA' SUPERMERCATO,RM,Roma,Via Di Boccea,632/634,12.3874494,41.9140166,00166,MAI,,
BUSCAINI SUPERMERCATI TRIONFALE SRL,AGORA SUPERMERCATI,RM,Roma,Via T De Gubernatis Mannucci,SNC,12.4275535,41.9393085,00135,MAI,,
BUSCAINI SUPERMERCATI TRIONFALE SRL,AGORA SUPERMERCATI,RM,Roma,Via Gregorio Vii,218,12.4397948,41.8958826,00165,MAI,,
C.D.K. SRL,CARREFOUR EXPRES SUPERMERCATO,RM,Roma,Viale Cesare Pavese,282,12.4744966,41.817393,00144,MAI,,
C.D.K. SRL,CARREFOUR EXPRESS SUPERMERCATO,RM,Roma,Via Cesare Fracassini,62/66,12.4709377,41.9235994,00196,MAI,,
C.D.K. SRL,CARREFOUR EXPRESS,RM,Roma,Via Della Vite,54-55-56,12.4818422,41.9039075,00187,MAI,,
C.D.K. SRL,CARREFOUR EXPRESS SUPERMERCATO,RM,Roma,Via Cola Di Rienzo,173,12.4642224,41.9078607,00193,MAI,,
C.D.K. SRL,CARREFOUR EXPRESS SUPERMERCATO,RM,Roma,Via Del Biscione,79,12.4731553,41.895794,00186,MAI,,
C.D.K. SRL,CARREFOUR MARKET,RM,Roma,Via Del Teatro Di Marcello,2A/2B,12.4819025,41.8939672,00186,MAI,,
C.D.K. SRL,ARDEA SUPERMERCATO,RM,Roma,Via Reggio Emilia,88,12.5029981,41.9121665,00198,MAI,,
C.F.C.M. SRL,EUR CAFFE' CASINI 22,RM,Roma,Viale Della Civilta Del Lavoro,58/60,12.4676864,41.8361219,00144,SABATO E DOMENICA,,
C.R. MARKET SPA,CONAD SUPERMERCATO,RM,Roma,Via Di Polletrara,47/49,12.3690976,41.9146869,00166,MAI,CASALOTTI,
C.R. MARKET SPA,CONAD SUPERMERCATO,RM,Roma,Via Di Castel Fusano,36,12.313329,41.7331406,00124,MAI,,
C.R. MARKET SPA,CONAD SUPERMERCATO,RM,Roma,Via Di Casal Palocco,121,12.3551635,41.7474576,00124,MAI,,
C.R. MARKET SPA,CONAD SUPERMERCATO,RM,Roma,Via Domenico Falcioni,12,12.3904538,41.9975149,00123,MAI,,
C.R. MARKET SPA,CONAD SUPERMERCATO,RM,Roma,Via Isole Del Capo Verde,22/26,12.2727971,41.7376548,00121,MAI,,
C.R. MARKET SPA,CONAD SUPERMERCATO,RM,Roma,Via Bernardino Alimena,111,12.6078389,41.8479808,00173,MAI,CENTRO COMMERCIALE DOMUS,
C.R. MARKET SPA,CONAD TOR TRE TESTE SUPERMERCATO,RM,Roma,Via Francesco Tovaglieri,21/23,12.590911,41.8815752,00155,MAI,,
C.R. MARKET SPA,CONAD SUPERMERCATO,RM,Roma,Via Casilina,1585/A,12.6086685,41.8640359,00133,MAI,,
C.R. MARKET SPA,CONAD SUPERMERCATO,RM,Roma,Via Ardeatina,850,12.5295573,41.8092814,00178,MAI,,
CAFFE' 46 SRLS,CAFFÈ' 46,RM,Roma,Via Savoia,8,12.5024534,41.9142103,00198,DOMENICA,,
CAFFE CLAUDIO SRL,IL TEMPIO DEL CAFFE BAR,RM,Roma,Viale Cesare Pavese,318/320,12.4744966,41.817393,00144,MAI,,
CAFFE' FLORIAN ROMA SRL,CAFFE' FLORIAN ROMA,RM,Roma,Via Giosuè Carducci,14,12.4941134,41.9062178,00187,SABATO E DOMENICA,,
CAFFE' ITALIANO SNC DI ALLETTO SALVATORE & C,CAFFE' ITALIANO,RM,Roma,Via Calabria,14,12.5607132,42.1186727,00187,DOMENICA,,
CAFFE' LA STELLA SRL,CAFFE' LA STELLA,RM,Roma,Piazzale Asia,21,12.4670397,41.8328749,00144,SABATO E DOMENICA,,
CAFFE NERO SAS DI MARIO ABATE & C.,BAR CAFFE' NERO,RM,Roma,Via Antonio Cantore,15,12.4636063,41.9186942,00195,MAI,,
CAFFE' POINT DI JIANG LINGUANG,CAFFE' POINT,RM,Roma,Via Mirandola,43/45,12.5244306,41.8828615,00182,MAI,,
CAFFE' TROMBETTA SPA,CTS SUPERMERCATO,RM,Roma,Via Gioberti,30/E/F/G,12.6822705,41.8081402,00185,MAI,,
CAFFE' TROMBETTA SPA,CTS SUPERMERCATI,RM,Roma,Via Cassia,340,12.4567055,41.9573649,00191,MAI,,
CAFFE' TROMBETTA SPA,CTS SUPERMERCATI,RM,Roma,Via Marsala,46,12.5031417,41.9019908,00185,MAI,,
CAFFE' TROMBETTA SPA,CTS SUPERMERCATI,RM,Roma,Via Andrea Millevoi,57,12.5186504,41.82234,00178,MAI,,
CAFFE' TROMBETTA SPA,CTS SUPERMERCATO,RM,Roma,Via Raffaele Conforti,95/97,12.4082634,41.8949241,00166,MAI,,
CAFFE' TROMBETTA SPA,CTS SUPERMERCATO,RM,Roma,Via Cechov,76,12.5074178,41.8392559,00142,MAI,,
CAFFE' TROMBETTA SPA,CTS SUPERMERCATI,RM,Roma,Via Tiburtina,872,12.534006,41.9081397,00159,MAI,,
CAFFEINA S.R.L.,CAFFEINA,RM,Roma,Via Giambattista Vico,44 A/B,12.4745773,41.912692,00196,DOMENICA,,
CAFFETTERIA POTA DI POTA VALERIO,CAFFETTERIA POTA,RM,Roma,Via Angelo Bargoni,80/84,12.4691019,41.8809892,00153,SABATO,,
CAFFETTERIA SRL,DIESIS CAFFE',RM,Roma,Via Gabriello Chiabrera,158,12.4793762,41.8542127,00145,DOMENICA,,
CALVANI EDOARDO,BAR TAVOLA CALDA CALVANI,RM,Roma,Via Tiburtina,731/735,12.534006,41.9081397,00159,DOMENICA,,
CAMMARANO PIETRO,GROTTA AZZURRA RISTORANTE PIZZERIA,RM,Roma,Via Cicerone,62/A,12.4678864,41.9084113,00193,MAI,,
CAPSAICINA SRLS,BAGEL PLUS,RM,Roma,Via Ancona,28,12.501792,41.9099951,00198,DOMENICA,,
CARBO SRLS,BAR CONCA D'ORO,RM,Roma,Via Conca D'oro,234,12.5218714,41.9420405,00141,DOMENICA,,
CAROTTI ANTONIETTA,BAR,RM,Roma,Via Dei Sommozzatori,10,12.4814222,41.8222131,00143,DOMENICA,,
CASOLI GIOVANNI SAS DI CASOLI GIOVANNI E C.,DELICATEZZE ARTIGIANALI GASTRONOMIA,RM,Roma,Via Sampiero Di Bastelica,31,12.5387182,41.8906341,00176,DOMENICA,,
CASTRONI A VIA CATANIA SRL,CASTRONI A VIA CATANIA,RM,Roma,Via Catania,54/56,12.5172221,41.910535,00161,DOMENICA,,
CAVALIERE VINCENZO GERARDO,PIZZERIA PALINURO,RM,Roma,Via Delle Vigne Nuove,604,12.5355308,41.9640846,00139,MAI,,
CD 24121 SRL,PEWEX SUPERMERCATO,RM,Roma,Via Del Serafico,220,12.4908341,41.8307928,00142,MAI,,
CD 24121 SRL,PEWEX MARKET,RM,Roma,Via Umberto Barbaro,24,12.5384337,41.9587264,00139,MAI,,
CDR 200 SRL,FRANCHI,RM,Roma,Via Cola Di Rienzo,200/204,12.4652093,41.9079707,00192,MAI,,
CE.PAS. SRL,DEM SUPERMERCATI,RM,Roma,Via Cesare Pascarella,20,12.4673869,41.8766864,00153,MAI,,
CE.PAS. SRL,DEM SUPERMERCATI,RM,Roma,Via Di Casal Selce,296,12.3414334,41.8985135,00166,MAI,,
CENSONI FABIO,PIZZERIA LE PIAZZETTE,RM,Roma,Via Donato Menichella,166,12.5891197,41.9464242,00156,DOMENICA,,
CENTRALMARKET DUE SRL,CARREFOUR MARKET,RM,Roma,Via Anagnina,395,12.6332776,41.805936,00118,MAI,,
CENTRO FOOD SRL,PANICUNZATO,RM,Roma,Viale Della Primavera,194,12.56021802263739,41.88211365,00172,MAI,CENTRO COMMERCIALE PRIMAVERA,
CERASARI SNC DI ENRICO E LAVINIA CERASARI,BAR GASTRONOMIA,RM,Roma,Via Salaria,288,12.5085917,41.9390045,00199,DOMENICA,,
CERNAIA SRL,RE BASILICO,RM,Roma,Via Cernaia,16,12.5005858,41.906848,00185,MAI,,
CFINANCIAL SRL,SICILY EAT,RM,Roma,Viale Dell'Oceano Pacifico,83,12.45950934721992,41.817101550000004,00144,MAI,CC EUROMA2,
CHANG CHENG DI CHEN YU,RISTORANTE CINESE,RM,Roma,Viale Vega,22,12.2935117,41.7272522,00122,MAI,,
CHEZ LES AMIS SRL,CHEZ LES AMIS RISTORANTE,RM,Roma,Via Quintino Sella,35,12.4957291,41.9076898,00187,SABATO E DOMENICA,,
CHIPS SRLS,PETERLAND,RM,Roma,Via Di S Giovanni In Laterano,54,12.4967729,41.8893366,00184,MAI,,
CHU TIY MARIE ODILE,BASILLICO,RM,Roma,Via Nomentana,46/48,12.5133326,41.917478,00161,MAI,,
CIAMARRA ALFREDO,PIZZA E KEBAB,RM,Roma,Via Pietro Cossa,52,12.4722455,41.9067057,00193,DOMENICA,,
CIEMME SNC DI CARLO ALFONZI E MATTEO VERTICCHIO,LA VONGOLA VORACE,RM,Roma,Largo Luigi Antonelli,15,12.4845302,41.8510301,00145,DOMENICA,,
CINQUE PANZEROTTI SRL,MATO',RM,Roma,Via Lorenzo Il Magnifico,26,12.5216843,41.9131668,00162,MAI,,
CINQUE PANZEROTTI SRL,MATO',RM,Roma,Via Venti Settembre,41,12.4956205,41.9052704,00187,MAI,,
CINQUE PANZEROTTI SRL,MATO',RM,Roma,Via Napoli,50,12.49324,41.9015497,00184,MAI,,
CINQUE PANZEROTTI SRL,MATO',RM,Roma,Viale Eritrea,108,12.5158881,41.9269385,00199,MAI,,
CINQUEG S.R.L.,TRICOLORE,RM,Roma,Via Germanico,43286,12.4609091,41.9084867,00192,DOMENICA,,
CIRILLO CESARE,MADE IN SUD,RM,Roma,Via Massaciuccoli,81,12.51485,41.9262903,00199,DOMENICA,,
COLACARNI SRLS,ECCE VINUM,RM,Roma,Via Cherso,152,12.5572255,41.8956424,00177,DOMENICA,,
COLASANTI MAURO,MACELLERIA COLASANTI,RM,Roma,Via Cherso,142/144,12.5572255,41.8956424,00177,MAI,,
COLOMBIA BAR SNC DI DI STEFANO DAVIDE & C.,COLOMBIA BAR,RM,Roma,Via Flavia,54,12.4967995,41.9068305,00187,SABATO E DOMENICA,,
CONSORZIO ORGOGLIO AQUILANO,BAR,RM,Roma,Lungotevere Ripa,1,12.4780076,41.8890682,00153,SABATO E DOMENICA,,
CONSORZIO ORGOGLIO AQUILANO,BAR,RM,Roma,Viale Giorgio Ribotta,5,12.4587433,41.8202225,00144,SABATO E DOMENICA,,
CORTE STEFANIA,PIADATIME,RM,Roma,Via Pietro Felter,13,12.4930411,41.8684796,00154,DOMENICA,,
D' ALFONSO LEANDRO E C SAS,BAR IL CAFFETTINO,RM,Roma,Via Della Moletta,27,12.4855491,41.8690636,00154,DOMENICA,,
D.S. BISTRO SRLS,DESAINT BON BISTRO,RM,Roma,Via Simone Da Saint Bon,27,12.4564982,41.9126419,00185,DOMENICA,,
DA LIVIO RISTORANTE LA CANTINOLA DI CANCEDDA LIVIO,RISTORANTE LA CANTINOLA,RM,Roma,Via Calabria,16/18,12.5607132,42.1186727,00187,DOMENICA,,
DA.FRA. SRL,BARGONI BAR,RM,Roma,Via Angelo Bargoni,38809,12.4691019,41.8809892,00153,SABATO,,
DA.MI. SRLS,LE CARAVELLE CAFFE' BISTROT,RM,Roma,Via Cristoforo Colombo,446,12.4881096,41.8526741,00145,DOMENICA,,
DANICAR GROUP SRL,TUTTOMARKET,RM,Roma,Via Scarpanto,5,12.5268239,41.9467507,00139,MAI,,
DANIEL DE STEFANIS,PASTA ALL'UOVO,RM,Roma,Via Gerolamo Cardano,50,12.4683476,41.8634439,00146,DOMENICA POMERIGGIO,,
DANIELE MARCHETTI,IL GUSTO DELL'IMPERATORE,RM,Roma,Via Imperatore Tiberio,59,12.483494,41.8510623,00145,SABATO E DOMENICA,,
DAPA DRINK SRL,CHUPITO BAR,RM,Roma,Via Gabriello Chiabrera,170,12.4793762,41.8542127,00145,DOMENICA,,
DARUMA CENTRO SRL,DARUMA SUSHI,RM,Roma,Via Dei Serpenti,1,12.4905821,41.8949696,00184,MAI,,
DARUMA EUR SRL,DARUMA SUSHI,RM,Roma,Viale America,9,12.4618252,41.8316706,00144,SABATO E DOMENICA,,
DARUMA GOLD SRL,DARUMA SUSHI,RM,Roma,Via Del Portico D'ottavia,14,12.4783778,41.8923774,00186,VENERDI' POMERIGGIO,,
DARUMA NORD SRL,DARUMA SUSHI,RM,Roma,Via Guidubaldo Del Monte,9,12.4779291,41.9284617,00197,DOMENICA,,
DARUMA NORD SRL,DARUMA SUSHI,RM,Roma,Via Flaminia,462,12.4846962,41.9529167,00191,MAI,,
DARUMA NORD SRL,DARUMA SUSHI,RM,Roma,Via Flaminia,464/B,12.4846962,41.9529167,00191,DOMENICA,,
DARUMA PARLAMENTO SRL,DARUMA SUSHI,RM,Roma,Piazza Del Parlamento,37,12.4792898,41.9023599,00186,MAI,,
DARUMA PRATI SRL,DARUMA SUSHI,RM,Roma,Via Pietro Cossa,51,12.4716518,41.906774,00193,SABATO E DOMENICA,,
DATA GROUP SRL,MONTANARI  CAFFETTERIA BAR,RM,Roma,Circonvallazione Ostiense,333/335,12.4934056,41.8673282,00154,MAI,,
DE ALBA SRLS,BAR RISTORANTE,RM,Roma,Via Leone Iv,87,12.4554369,41.9091204,00192,MAI,,
DE CAMPI MARCELLO E FIGLI SNC,CONAD ALIMENTARI,RM,Roma,Viale Trastevere,88/90,12.3944992,41.7826788,00153,MAI,,
DE CUPIS DANIELE,BAR GASTRONOMIA,RM,Roma,Via Celimontana,22/24,12.4964896,41.8885198,00184,DOMENICA,,
DE.MIL. SRL,IL FIENILE BAR,RM,Roma,Via Affile,53,12.6499738,41.9550411,00131,DOMENICA,,
DELICATI SAPORI SRL,DELICATI  SAPORI LUCARELLI GASTRONOMIA,RM,Roma,Via Nomentana,161/163,12.5133326,41.917478,00161,DOMENICA,,
DELIZIE ALIMENTARI SAS DI RACCOGLI SIMONA,DELIZIE ALIMENTARI,RM,Roma,Via Andrea Meldola,143,12.507107,41.823513,00143,DOMENICA,,
DELIZIE REGIONALI BAR CAFFE SAS,BAR CAFFE,RM,Roma,Via Canton,44105,12.437244842839458,41.80360335,00144,SABATO E DOMENICA,,
DEMENZ SRLS,GIANGUSTO,RM,Roma,Viale Eritrea,93/95,12.5158881,41.9269385,00199,MAI,,
DESA SRL,SUPERMERCATO IPERDEM,RM,Roma,Via Tuscolana,761,12.5559552,41.8606311,00174,MAI,,
DESA SRL,NEW SUPERMERCATO IPERDEM,RM,Roma,Via Delle Ciliegie,100,12.5752998,41.8830058,00172,MAI,,
DESA SRL,SUPERMERCATO DEM,RM,Roma,Via S Maria Ausiliatrice,63/A,,,00181,MAI,,
DI BI FOOD SRL,BURGER KING,RM,Roma,Lungotevere Degli Inventori,124/136,12.4686737,41.8611527,00146,MAI,,
DI CARLO PIETRO E C. SNC,DI CARLO ALIMENTARI,RM,Roma,Via Di Acqua Bullicante,52,12.5432671,41.8832486,00177,MAI,,
DI SAVERIO PASQUALINO,IL TAVOLINETTO,RM,Roma,Via Massimo D'Azeglio,46,11.8051105,42.0969552,00184,MAI,,
DI TOMMASO SARA,SALUMERIA NORCINERIA,RM,Roma,Via Dei Quintili,18,12.5465346,41.867103,00175,DOMENICA,,
DI TRONO CAFFE' SRL,ROTONDI CAFFE',RM,Roma,Viale B Vergine Del Carmelo,175,,,00144,DOMENICA,,
DI TTA INDIVIDUALE DI MARCO CATA',SUPERMERCATI DELLA CONVENIENZA,RM,Roma,Largo Primavera,18/24,,,00171,MAI,,
DICO SPA,TUODI' SUPERMERCATO,RM,Roma,Via L'aquila,19,12.7400661,41.4588686,00176,MAI,,
DICO SPA,TUODI' SUPERMERCATO,RM,Roma,Via Dei Castani,186,12.5650615,41.8893207,00171,MAI,,
DICO SPA,TUODI' SUPERMERCATO,RM,Roma,Via Zara,24,12.5094202,41.9152886,00198,MAI,,
DICO SPA,TUODI' SUPERMERCATO,RM,Roma,Viale Delle Provincie,168,12.5209455,41.9116299,00162,MAI,,
DICO SPA,TUODI' SUPERMERCATO,RM,Roma,Largo Forano,9,12.5112782,41.9351422,00199,MAI,,
DICO SPA,TUODI SUPERMERCATO,RM,Roma,Circonvallazione Gianicolense,11,12.4472381,41.8740116,00152,MAI,,
DICO SPA,TUODI' SUPERMERCATO,RM,Roma,Via Delle Camelie,19/B,12.5663546,41.8778303,00172,MAI,,
DICO SPA,TUODI' SUPERMERCATO,RM,Roma,Via Prenestina,1530,12.6629431,41.8908702,00132,MAI,,
DICO SPA,TUODI' SUPERMERCATO,RM,Roma,Piazzale Delle Medaglie D'oro,58/59/60/61,12.4465154,41.9238575,00136,MAI,,
DICO SPA,TUODI SUPERMERCATO,RM,Roma,Largo Chiaro Davanzati,SNC,12.6222651,41.9417875,00131,MAI,,
DICO SPA,TUODI' SUPERMERCATO,RM,Roma,Via Cristoforo Colombo,436/B,12.4881096,41.8526741,00145,MAI,,
DICO SPA,TUODI' SUPERMERCATO,RM,Roma,Via Dei Platani,56/B,12.5702159,41.8809592,00172,MAI,,
DICO SPA,TUODI SUPERMARKET,RM,Roma,Via Bernardino Alimena,13,12.5988187,41.8485925,00173,MAI,,
DICO SPA,TUODI SUPERMERCATO,RM,Roma,Via Cornelio Magni,1,12.4975555,41.8656565,00147,MAI,,
DICO SPA,TUODI SUPERMECATO,RM,Roma,Viale Ippocrate,56,12.5183316,41.9076443,00161,MAI,,
DICO SPA,TUODI SUPERMERCATO,RM,Roma,Circonvallazione Appia,33/A,12.5153411,41.875872,00179,MAI,,
DICO SPA,TUODI SUPERMERCATO,RM,Roma,Via Scarperia,6,12.4560887,41.8445533,00146,MAI,,
DICO SPA,TUODI' SUPERMERCATO,RM,Roma,Viale Giulio Agricola,40,12.5611484,41.8556268,00174,MAI,,
DICO SPA,TUODI' SUPERMERCATO,RM,Roma,Via Annunzio Cervi,7,12.5468501,41.9516326,00137,MAI,,
DICO SPA,TUODI SUPERMERCATO,RM,Roma,Via Liberiana,16,12.4981388,41.8969857,00185,MAI,,
DICO SPA,TUODI' SUPERMERCATO,RM,Roma,Viale Della Staz Prenestina,23-25-27,12.546185,41.896257,00177,MAI,,
DICO SPA,TUODI' SUPERMERCATO,RM,Roma,Viale Delle Gardenie,177,12.5518895,41.536461,00172,MAI,,
DICO SPA,TUODI SUPERMERCATO,RM,Roma,Via Igino Giordani,57/63/A,12.5618949,41.906345,00159,MAI,,
DICO SPA,TUODI SUPERMERCATO,RM,Roma,Via Arrigo Davila,43/45,12.5283484,41.8682016,00179,MAI,,
DICO SPA,TUODI' SUPERMERCATO,RM,Roma,Via Ravenna,35,12.5186407,41.9130439,00161,MAI,,
DICO SPA,TUODI' SUPERMERCATO,RM,Roma,Piazza S. Leonardo Da Porto Maurizio,SNC,12.3656705,41.783313,00125,MAI,,
DICO SPA,TUODI' SUPERMERCATO,RM,Roma,Via Città Della Pieve,62,12.4739616,41.9448359,00191,MAI,,
DICO SPA,TUODI' SUPERMERCATO,RM,Roma,Piazzale Filippo Il Macedone,123,12.3537754,41.7503445,00124,MAI,,
DICO SPA,TUODI' SUPERMERCATO,RM,Roma,Via Buonarroti,37,12.5029308,41.8938352,00185,MAI,,
DICO SPA,TUODI' SUPERMERCATO,RM,Roma,Via Giuseppe Marcotti,38,12.5390803,41.9094592,00157,MAI,,
DICO SPA,TUODI' SUPERMERCATO,RM,Roma,Via Cassia,1778/D,12.3727745,42.0579159,00123,MAI,,
DICO SPA,TUODIS SUPERMERCATO,RM,Roma,Via Di Torre Spaccata,110,12.5875778,41.858814,00173,MAI,,
DICO SPA,TUODI' SUPERMERCATO,RM,Roma,Via Delle Sette Chiese,136,12.4900362,41.8604931,00145,MAI,,
DICO SPA,TUODI' SUPERMERCATO,RM,Roma,Via Marino Laziale,1,12.5318997,41.8712589,00179,MAI,,
DICO SPA,TUODI' SUPERMERCATO,RM,Roma,Via Trionfale,14119,12.4219925,41.9411335,00135,MAI,,
DICO SPA,TUODI' SUPERMERCATO,RM,Roma,Piazza Ledro,7/D,12.5106294,41.9231347,00199,MAI,,
DICO SPA,TUODI SUPERMERCATO,RM,Roma,Via Della Paranzella,20,12.2718102,41.7345101,00121,MAI,,
DICO SPA,TUODI SUPERMERCATO,RM,Roma,Via Annia,18,12.4959074,41.8875565,00184,MAI,,
DICO SPA,TUODI SUPERMERCATO,RM,Roma,Via Eschilo,36,12.3726341,41.7599902,00125,MAI,,
DICO SPA,TUODI' SUPERMERCATO,RM,Roma,Via Di S Croce In Gerusalemme,101,,,00185,MAI,,
DICO SPA,TUODI' SUPERMERCATO,RM,Roma,Via Flavio Stilicone,252,12.5572513,41.8609856,00175,MAI,,
DICO SPA,TUODI' SUPERMERCATO,RM,Roma,Via Alessandria,160/166,12.5005346,41.9105957,00198,MAI,,
DICO SPA,TUODI' SUPERMERCATO,RM,Roma,Via Dei Prati Fiscali,90,12.5252645,41.9459563,00141,MAI,,
DICO SPA,TUODI' SUPERMERCATO,RM,Roma,Piazza Elio Callistio,15/16,12.5226787,41.9293752,00199,MAI,,
DICO SPA,TUODI' SUPERMERCATO,RM,Roma,Via Di Casal Dei Pazzi,35,12.56994857437255,41.92584615,00156,MAI,,
DICO SPA,TUODI' SUPERMERCATO,RM,Roma,Via Flaminia,320,12.4709519,41.923723,00196,MAI,,
DICO SPA,TUODI' SUPERMERCATO,RM,Roma,Via Asmara,50/A,12.5202401,41.9263642,00199,MAI,,
DICO SPA,TUODI' SUPERMERCATO,RM,Roma,Via Luigi Zambarelli,12,12.4465246,41.8775164,00152,MAI,,
DICO SPA,TUODI' SUPERMERCATO,RM,Roma,Via Ugo Ojetti,211-225,12.5523297,41.9447107,00137,MAI,,
DICO SPA,TUODI SUPERMERCATO,RM,Roma,Via Di Macchia Saponara,83,12.3631628,41.7598034,00125,MAI,,
DICO SPA,TUODI'  SUPERMERCATO,RM,Roma,Viale Degli Eroi Di Cefalonia,135,12.4386022,41.7809847,00128,MAI,,
DICO SPA,TUODI' SUPERMERCATO,RM,Roma,Via Di Tor Bella Monaca,441,12.6385329,41.8668637,00133,MAI,,
DICO SPA,TUODI' SUPERMERCATO,RM,Roma,Lungotevere Michelangelo,8,12.4701714,41.9126517,00192,MAI,VIA FORNOVO,
DICO SPA,TUODI' SUPERMERCATO,RM,Roma,Via Statilio Ottato,43/45,12.567881,41.8560705,00175,MAI,,
DICO SPA,TUODI' SUPERMERCATO,RM,Roma,Viale Paolo Orlando,18,12.2883699,41.7300756,00122,MAI,,
DICO SPA,TUODI' SUPERMERCATO,RM,Roma,Via Sant' Agatone Papa,47,,,00165,MAI,,
DICO SPA,TUODI' SUPERMERCATO,RM,Roma,Via Casal Tidei,101,12.580236,41.9412252,00156,MAI,,
DICO SPA,TUODI' SUPERMERCATO,RM,Roma,Viale Vasco De Gama,295,12.2722572,41.7353496,00121,MAI,,
DICO SPA,TUODI' SUPERMERCATO,RM,Roma,Via Amedeo Bocchi,224,12.3504183,41.7760065,00125,MAI,,
DICO SPA,TUODI' SUPERMERCATO,RM,Roma,Via Nicola Spedalieri,59,12.483665,41.8430766,00142,MAI,,
DICO SPA,TUODI' SUPERMERCATO,RM,Roma,Piazza R Balsamo Crivelli,43191,,,00159,MAI,,
DICO SPA,TUODI' SUPERMERCATO,RM,Roma,Via Etruria,32,12.5127238,41.8790316,00183,MAI,,
DICO SPA,TUODI' SUPERMERCATO,RM,Roma,Via Acqua Bullicante,45/A,12.5432671,41.8832486,00177,MAI,,
DICO SPA,TUODI' SUPERMERCATO,RM,Roma,Viale Furio Camillo,56/56A/B/C,12.5246087,41.8757209,00181,MAI,,
DICO SPA,TUODI' SUPERMERCATO,RM,Roma,Via Gargano,21/A,12.5342262,41.936277,00141,MAI,,
DICO SPA,TUODI SUPERMERCATO,RM,Roma,Via Della Marsica,15,12.525936,41.9165775,00162,MAI,,
DICO SPA,TUODI' SUPERMERCATO,RM,Roma,Via Montegiberto,31/A,,,00138,MAI,,
DICO SPA,TUODI' SUPERMERCATO,RM,Roma,Via Tagliamento,29,12.5042192,41.9208829,00198,MAI,,
DICO SPA,TUODI' SUPERMERCATO,RM,Roma,Via Raffaele Rossetti,5,12.4504157,41.9148131,00136,MAI,,
DICO SPA,TUODI SUPERMERCATO,RM,Roma,Via Cassia,344,12.4265864,41.9746287,00189,MAI,,
DICO SPA,TUODI' SUPERMERCATO,RM,Roma,Via Di Tor Pignattara,128,12.5414541,41.8768353,00177,MAI,,
DICO SPA,TUODI' SUPERMERCATO,RM,Roma,Via Antonio Roiti,30,12.4675344,41.8618656,00146,MAI,,
DICO SPA,TUODI' SUPERMERCATO,RM,Roma,Via Duccio Di Buoninsegna,67/73,12.4900693,41.8297961,00142,MAI,,
DICO SPA,TUODI' SUPERMERCATO,RM,Roma,Via Carlo Santarelli,100,12.6073839,41.8627457,00133,MAI,,
DICO SPA,TUODI' SUPERMERCATO,RM,Roma,Viale Paolo Orlando,78/88,12.2883699,41.7300756,00122,MAI,,
DICO SPA,TUODI' SUPERMERCATO,RM,Roma,Via Cipro,10,12.4465457,41.9072904,00136,MAI,,
DICO SPA,TUODI SUPERMERCATO,RM,Roma,Via Ginori,32/34/36/38,12.4760259,41.8788611,00153,MAI,,
DICO SPA,TUODI' SUPERMERCATO,RM,Roma,Via Portuense,851,12.4216153,41.8497718,00148,MAI,,
DIESSE 2010 SRL,DEM SUPERMERCATO,RM,Roma,Via Casilina,769,12.5646576,41.8748036,00172,MAI,,
DIETRO LE QUINTE SNC,WINE BAR,RM,Roma,Via Tirso,85,12.5000975,41.9171761,00198,DOMENICA,,
DIFRA SUPERMERCATI SRL,CONAD,RM,Roma,Via Francesco D'ovidio,95,12.5490079,41.941751,00137,DOMENICA,,
DIPERDI SRL,CARREFOUR MARKET,RM,Roma,Via Vittorio Emanuele Orlando,92/93,12.4957243,41.9031408,00185,MAI,,
DIPERDI SRL,CARREFOUR EXPRESS SUPERMERCATO,RM,Roma,Via Del Gesù,58/59,12.4787962,41.8972951,00186,MAI,,
DIPERDI SRL,CARREFOUR EXPRESS SUPERMERCATO,RM,Roma,Via Po,106-108,12.4995156,41.9176565,00198,MAI,,
DIPERDI SRL,CARREFOUR EXPRESS MARKET,RM,Roma,Piazza Irnerio,SNC,12.430145,41.8981923,00165,MAI,,
DIPERDI SRL,CARREFOUR EXPRESS SUPERMERCATO,RM,Roma,Via Del Viminale,35,12.4951875,41.9000481,00184,MAI,,
DIPERDI SRL,CARREFOUR EXPRESS SUPERMERCATO,RM,Roma,Viale Somalia,74/82,12.5124388,41.9355515,00199,MAI,,
DIPERDI SRL,CARREFOUR EXPRESS MARKET,RM,Roma,Via Sebastiano Veniero,10/A,12.4550444,41.9079131,00192,MAI,,
DIPERDI SRL,CARREFOUR EXPRESS MARKET,RM,Roma,Viale Degli Astri,117/129,12.4472917,41.8119589,00144,MAI,,
DIPERDI SRL,CARREFOUR EXPRESS MARKET,RM,Roma,Via Dei Santissimi Quattro,SNC,,,00184,MAI,,
DIPERDI SRL,CARREFOUR EXPRESS MARKET,RM,Roma,Via Guglielmo Mengarini,82,12.4575184,41.8622624,00149,MAI,,
DIPERDI SRL,CARREFOUR EXPRESS MARKET,RM,Roma,Via Appiano,31,12.4382798,41.9135424,00136,MAI,,
DIPERDI SRL,CARREFOUR EXPRESS MARKET,RM,Roma,Corso Vittorio Emanuele Ii,290,12.4670919,41.8989216,00186,MAI,,
DIPERDI SRL,CARREFOUR EXPRESS MARKET,RM,Roma,Via Giovanni Nicotera,13/27,12.468457,41.9146276,00195,MAI,,
DIPERDI SRL,CARREFOUR EXPRESS MARKET,RM,Roma,Via Di Monte Del Gallo,23,12.4521353,41.8963761,00165,MAI,,
DISTRIBUZIONE LAZIO UMBRIA SRL,COOP SUPERMERCATO,RM,Roma,Viale Ettore Franceschini,SNC,12.5750517,41.9122267,00155,MAI,LARGO FRANCHELLUCCI,
DISTRIBUZIONE LAZIO UMBRIA SRL,COOP IPERMERCATO C/COMM EUROMA 2,RM,Roma,Via Cristoforo Colombo,SNC,12.4612872,41.8148799,00144,MAI,ANG VIA OCEANO,
DISTRIBUZIONE LAZIO UMBRIA SRL,COOP SUPERMERCATO,RM,Roma,Largo Agosta,26,12.5581714,41.891562,00171,MAI,,
DISTRIBUZIONE LAZIO UMBRIA SRL,COOP SUPERMERCATO,RM,Roma,Viale Gino Cervi,SNC,12.5323398,41.9629501,00139,MAI,ANG. VIA ANNA BETTINI,
DISTRIBUZIONE LAZIO UMBRIA SRL,COOP IPERMERCATO,RM,Roma,Via Casilina,1011,12.5923893,41.8672093,00169,MAI,,
DISTRIBUZIONE ROMA SRL,COOP SUPERMERCATO,RM,Roma,Via Donato Menichella,170,12.5891197,41.9464242,00156,MAI,,
DISTRIBUZIONE ROMA SRL,COOP SUPERMERCATO,RM,Roma,Viale Parioli,31,12.4890563,41.9253418,00197,MAI,,
DISTRIBUZIONE ROMA SRL,IN COOP SUPERMERCATO,RM,Roma,Via Toscana,"0,125",12.4908031,41.9098917,00187,MAI,,
DISTRIBUZIONE ROMA SRL,COOP SUPERMERCATO,RM,Roma,Corso Del Rinascimento,7,12.474008,41.8978642,00186,MAI,,
DISTRIBUZIONE ROMA SRL,IN COOP SUPERMERCATO,RM,Roma,Via In Arcione,70,12.486135,41.9021792,00187,MAI,,
DISTRIBUZIONE ROMA SRL,COOP SUPERMERCATO,RM,Roma,Viale Leonardo Da Vinci,111,12.4809599,41.8557665,00145,MAI,,
DISTRIBUZIONE ROMA SRL,IN COOP SUPERMERCATO,RM,Roma,Vicolo Della Moretta,10,12.4679369,41.8973084,00186,MAI,,
DISTRIBUZIONE ROMA SRL,IN COOP SUPERMERCATO,RM,Roma,Via Tacito,90/A,12.4681732,41.9060253,00193,MAI,,
DISTRIBUZIONE ROMA SRL,IN COOP SUPERMERCATO,RM,Roma,Corso Vittorio Emanuele Ii,40,12.4776043,41.8957969,00186,MAI,,
DISTRIBUZIONE ROMA SRL,COOP,RM,Roma,Corso Trieste,27/B,12.5076679,41.9151535,00198,MAI,,
DISTRIBUZIONE ROMA SRL,COOP SUPERMERCATO,RM,Roma,Piazza S Giovanni Battista Salle,SNC,,,00165,MAI,,
DISTRIBUZIONE ROMA SRL,COOP TRAFORO,RM,Roma,Via Del Traforo,143,12.4860995,41.9024331,00187,MAI,,
DISTRIBUZIONE ROMA SRL,COOP COLLAZIA,RM,Roma,Via Collazia,4,12.507263,41.8782612,00183,MAI,,
DISTRIBUZIONE ROMA SRL,COOP SUPERMERCATO,RM,Roma,Via Pinerolo,17/19,12.5158894,41.8824937,00182,MAI,,
DISTRIBUZIONE ROMA SRL,COOP,RM,Roma,Via Nazionale,211,12.4923664,41.9003117,00184,MAI,,
DISTRIBUZIONE ROMA SRL,IN COOP SUPERMERCATO,RM,Roma,Via Cavour,60/64,12.4950416,41.8964541,00184,MAI,,
DISTRIBUZIONE ROMA SRL,IN COOP SUPERMERCATO,RM,Roma,Circonvallazione Appia,55,12.5153411,41.875872,00179,MAI,,
DISTRIBUZIONE ROMA SRL,IN COOP SUPERMERCATO,RM,Roma,Via Carlo Santarelli,91,12.6073839,41.8627457,00133,MAI,,
DISTRIBUZIONE ROMA SRL,IN COOP SUPERMERCATO,RM,Roma,Via Marsala,SNC,12.5041579,41.901252,00185,MAI,STAZIONE TERMINI,
DISTRIBUZIONE ROMA SRL,COOP SUPERMERCATO,RM,Roma,Via Alberico Ii,3,12.4616107,41.9051181,00193,MAI,,
DISTRIBUZIONE ROMA SRL,COOP SUPERMERCATO,RM,Roma,Via Prospero Alpino,16/20,12.4871363,41.8693543,00154,MAI,,
DISTRIBUZIONE ROMA SRL,COOP,RM,Roma,Via Clelia,66,12.526141,41.8743078,00181,MAI,,
DISTRIBUZIONE ROMA SRL,COOP SUPERMERCATO,RM,Roma,Via Della Farnesina,42,12.4639454,41.938754,00135,MAI,,
DISTRIBUZIONE ROMA SRL,IN COOP SUPERMERCATO,RM,Roma,Via Simon Boccanegra,9,12.5251956,41.9147811,00162,MAI,,
DISTRIBUZIONE ROMA SRL,IN COOP SUPERMERCATO,RM,Roma,Via La Spezia,84,12.5144548,41.8861993,00182,MAI,,
DISTRIBUZIONE ROMA SRL,COOP,RM,Roma,Via Venti Settembre,51/55,12.4956205,41.9052704,00187,MAI,,
DISTRIBUZIONE ROMA SRL,COOP SUPERMERCATO,RM,Roma,Via Dei Pettinari,70,12.4714489,41.8928529,00186,MAI,,
DISTRIBUZIONE ROMA SRL,COOP SUPERMERCATO,RM,Roma,Via Della Croce,48/49,12.4811328,41.9065249,00187,MAI,,
DISTRIBUZIONE ROMA SRL,COOP SUPERMERCATO,RM,Roma,Via Galeazzo Alessi,261,12.5351531,41.8807651,00176,MAI,,
DISTRIBUZIONE ROMA SRL,IN COOP SUPERMERCATO,RM,Roma,Via Pisino,101/107,12.561266,41.8996293,00177,MAI,,
DISTRIBUZIONE ROMA SRL,COOP SUPERMERCATO,RM,Roma,Via Andrea Busiri Vici,24,12.4576768,41.8827043,00152,MAI,,
DISTRIBUZIONE ROMA SRL,COOP SUPERMERCATO,RM,Roma,Via Goffredo Mameli,11,12.591341672234234,41.7797942,00153,MAI,,
DISTRIBUZIONE ROMA SRL,COOP SUPERMERCATO,RM,Roma,Via Giuseppe Ferrari,SNC,12.4641816,41.9146895,00195,MAI,,
DISTRIBUZIONE ROMA SRL,COOP SUPERMERCATO,RM,Roma,Via Giorgione,54,12.4931693,41.8504131,00147,MAI,,
DISTRIBUZIONE ROMA SRL,COOP SUPERMERCATO,RM,Roma,Via Andrea Doria,44/46,10.1805011,43.9552922,00192,MAI,,
DISTRIBUZIONE ROMA SRL,IN COOP SUPERMERCATO,RM,Roma,Via Di S Bartolomeo Vaccinari,SNC,,,00186,MAI,,
DISTRIBUZIONE ROMA SRL,COOP SUPERMERCATO,RM,Roma,Via Di Baccanello,315,12.3370977,42.0677421,00123,MAI,,
DISTRIBUZIONE ROMA SRL,COOP SUPERMERCATO,RM,Roma,Via Del Pozzetto,119/124,12.4821951,41.9025621,00187,MAI,,
DOLCE CAFFE SRLS,DOLCE CAFFE',RM,Roma,Via Tripolitania,103,12.5235371,41.9302882,00199,DOMENICA,,
DOLCE CALABRIA SAS DI MORELLO ALESSANDRA & C.,LA FOLLIA BAR,RM,Roma,Via Ostilia,24,12.4952402,41.8888602,00184,MAI,,
DOLCE VITA SRL,LA DOLCE VITA,RM,Roma,Via Bomcompagni,67,,,00187,DOMENICA,,
DON NINO CORSO ITALIA SRL,DON NINO,RM,Roma,Piazza Fiume,77-78-79,12.4981727,41.9105769,00198,MAI,,
DONATIELLO MARCO,L' INSALATONA,RM,Roma,Via Marche,15,12.4904417,41.9084253,00187,SABATO E DOMENICA,,
DONNINELLI AMEDEO,CRAI,RM,Roma,Via Pietro Giordani,2,12.4785322,41.8548507,00145,DOMENICA,,
DOPPIO GUSTO SRLS,DOPPIO GUSTO,RM,Roma,Via Ventiquattro Maggio,52,12.4867669,41.8980055,00187,SABATO E DOMENICA,,
DOPPIOZERO 2 SRL,VINILE RISTORANTE,RM,Roma,Piazza Della Libertà,19,12.6504175,41.7463166,00192,MAI,,
DREAM BAR SRL,DREAM BAR,RM,Roma,Via Val Pellice,19,12.5204467,41.9444557,00141,DOMENICA,,
DROGHERIA ALESSE DI ALESSE PAOLO,DROGHERIA ALESSE,RM,Roma,Piazza Pietro Thouar,39/40,12.420808989466487,41.943060700000004,00135,DOMENICA,,
DUBAI WORLD SRL,BAR TAVOLA CALDA,RM,Roma,Via Del Pescaccio,22,12.38027823104353,41.866111599999996,00166,DOMENICA,,
DUE P 2010 SRL,AL MERCATO SUPERMERCATO,RM,Roma,Via Massimo Troisi,15,12.3903941,41.7856254,00125,MAI,,
DUEFFE SRLS,DUEFFE SRLS,RM,Roma,Via Sicilia,245,12.4957061,41.9098926,00187,DOMENICA,,
DUEFFE SRLS,BAR CODE,RM,Roma,Via Sicilia,245,12.4957061,41.9098926,00187,DOMENICA,,
DURANTE GIUSEPPE,TAZZA D'ORO,RM,Roma,Via Marche,52,12.4904417,41.9084253,00187,SABATO E DOMENICA,,
DUSSMANN SERVICE SRL,ENI MATTEI MENSA,RM,Roma,Piazzale Enrico Mattei,1,12.471662476346204,41.8271836,00144,SABATO E DOMENICA,,
ECCELLENZE DEL BUONGUSTO SRL,ECCELLENZE DEL BUON GUSTO,RM,Roma,Via Fiume Bianco,42,12.4404153,41.8152642,00144,MAI,,
EDRALINA FELIPE,BAR FIVE,RM,Roma,Viale Imperatore Giustiniano,61,12.4887308,41.8535836,00145,MAI,,
EFFEPI LEONARDI SRL,BAR LEONARDI,RM,Roma,Via Dei Marrucini,44,12.5141143,41.899842,00185,MAI,,
ELISA IMPAVIDI,ELISA BISTRO',RM,Roma,Via Monteporzio,3,12.5422136,41.8632469,00178,MAI,,
EMME PIU' SRL,EMME PIU',RM,Roma,Viale Aventino,88/94 39,,,00153,MAI,,
EMME PIU' SRL,EMME PIU',RM,Roma,Via Renzo Da Ceri,71,12.5384788,41.8865124,00176,MAI,,
EMME PIU' SRL,EMME PIU',RM,Roma,Via Della Rustica,265,12.6023606,41.9113326,00155,MAI,,
EMME PIU' SRL,EMME PIU',RM,Roma,Via Roberto Fancelli,7,12.5758023,41.8659879,00169,MAI,,
EMME PIU' SRL,EMME PIU',RM,Roma,Via Carlo Sigonio,53,12.5210739,41.8742951,00179,MAI,,
EMME PIU' SRL,EMME PIU',RM,Roma,Via Di Tor Vergata,1,12.6256618,41.855845,00133,MAI,,
EMME PIU' SRL,EMME PIU',RM,Roma,Viale Eretum,19,12.5976349,41.9440672,00131,MAI,,
EMME PIU' SRL,EMME PIU',RM,Roma,Via Tiberina,73/A,12.496641,42.0018252,00188,MAI,,
EMME PIU' SRL,EMME PIU',RM,Roma,Via Cassia,1705/1707,12.3727745,42.0579159,00123,MAI,,
EMME PIU' SRL,EMME PIU',RM,Roma,Viale Manzoni,40/44,12.5096921,41.8931157,00185,MAI,,
EMME PIU' SRL,EMME PIU',RM,Roma,Via Claudio Asello,29,12.5582029,41.8631911,00175,MAI,,
EMME PIU' SRL,EMME PIU',RM,Roma,Via Edoardo D'Onofrio,140/142,12.5739963,41.9135622,00155,MAI,,
EMME PIU' SRL,EMME PIU',RM,Roma,Via Gabriello Chiabrera,89,12.4794471,41.8539248,00145,MAI,,
EMME PIU' SRL,EMME PIU',RM,Roma,Via Della Pineta Sacchetti,51,12.4235148,41.9104231,00167,MAI,,
EMME PIU' SRL,EMME PIU',RM,Roma,Via Amalia Bettini,56,12.5259455,41.9639355,00139,MAI,,
EMME PIU' SRL,EMME PIU',RM,Roma,Via Volusia,16,12.4274734,41.9762983,00189,MAI,,
EMME PIU' SRL,EMME PIU',RM,Roma,Via Di Baccanello,316/318/320,12.3877103,42.0637063,00123,MAI,,
EMME PIU' SRL,EMME PIU',RM,Roma,Via Della Fotografia,113,12.5151297,41.8353819,00142,MAI,,
ENRICO UGOLINELLI,AL PANINO,RM,Roma,Via Pietro Borsieri,5/A,12.4613179,41.9130953,00195,MAI,,
ERNESTI ENRICO,PASTA ALL'UOVO NORCINERIA,RM,Roma,Via Stefano Oberto,BOX15,,,00173,MAI,,
ESPERIA SNC,TRATTORIA ESPERIA,RM,Roma,Via Firenze,16/17,12.4944882,41.9016626,00184,DOMENICA,,
ESSEGI SNC DI RAVIOLI GIULIO & C.,VINO E RAVIOLI,RM,Roma,Viale B Vergine Del Carmelo,161,,,00144,DOMENICA,,
ESSELUNGA SPA,ESSELUNGA MARKET,RM,Roma,Viale Palmiro Togliatti,1021-1023,12.5752593,41.9017473,00155,MAI,,
ESTER SRL,IPERCARNI GASTRONOMIA,RM,Roma,Via Carlo Lorenzini,91,12.5544128,41.9455083,00137,MAI,,
ESTER SRL,IPERCARNI GASTRONOMIA,RM,Roma,Via Delle Vigne Nuove,232,12.5355308,41.9640846,00139,MAI,,
EUR 2008 SRL,IL RAZIONALE,RM,Roma,Viale Della Civilta Del Lavoro,72/76,12.4676864,41.8361219,00144,SABATO E DOMENICA,,
EUR CITY SRL,GILOTTI EUR,RM,Roma,Viale Oceania,90,12.461762038101872,41.8288963,00144,MAI,,
EUR FOOD SRL,CASA  NOVECENTO,RM,Roma,Piazza Guglielmo Marconi,32,12.4707861,41.8345953,00144,DOMENICA,,
EUR MARGHERITA SRL,MARGHERITA OSTERIA RISTORANTE,RM,Roma,Via Praga,43409,12.4491176,41.8239258,00144,MAI,,
EUROPA BAKERY SRLS,LIEVITO PIZZA PANE,RM,Roma,Viale Europa,339,12.4738315,41.8297913,00144,DOMENICA,,
EUSTACCHI ALBERTO,PIZZERIA ALBERT,RM,Roma,Circonvallazione Ostiense,225,12.4934056,41.8673282,00154,DOMENICA,,
EVENGELISTI STEFANO,BAR,RM,Roma,Via Vigne Nuove,624,12.7372552,41.6574919,00139,DOMENICA,,
F E F SRLS,L'ANTICO CASALE,RM,Roma,Via Di Salone,155/157,12.6246003,41.9348949,00131,DOMENICA,,
F E R LAB GASTRONOMIA ALIMENTARE DI FABIO ROBERTO TAORMIN,F E R LAB,RM,Roma,Via Giambattista Vico,44D/E 46,,,00196,DOMENICA,,
F.E G. SRLS,BAR TAVOLA CALDA,RM,Roma,Via Zoe Fontana,220,12.606986256058027,41.92805025,00131,SABATO E DOMENICA,,
F.L.F.SRL,CAFFE' TESTACCIO,RM,Roma,Via Giovanni Branca,64,12.476231,41.8813256,00153,MAI,,
F.LLI CARRA DI CARRA V. SAS,RISTORANTE JONNY GALLO,RM,Roma,Piazza Della Repubblica,64/65/66,12.729850971603963,41.9524123,00185,MAI,,
F.LLI CARRA DI CARRA V. SAS,CAFFE' BAR PICCAROZZI,RM,Roma,Piazza Della Repubblica,62/63,12.729850971603963,41.9524123,00185,MAI,,
FA.PI. SA. SRL,LA FONTE DEL PANE,RM,Roma,Via Gabriello Chiabrera,156/ABC,,,00145,DOMENICA,,
FABIO CONSOLE,L ' AMBASCIATA CALABRESE,RM,Roma,Via Michelangelo Poggioli,23/25,12.5163746,41.9071014,00161,DOMENICA,,
FALUNI SRL,CONAD,RM,Roma,Via Conversano,SNC,12.5777602,41.893519,00171,MAI,,
FALUNI SRL,CONAD,RM,Roma,Via Delle Vigne Di Morena,23,12.6051211,41.8109457,00118,DOMENICA,,
FAMILY BAR DI RUSSO MARC,BAR GASTRONOMIA,RM,Roma,Via Venti Settembre,121,12.4956205,41.9052704,00187,MAI,,
FAMILY SAS DI FABIO BRUNO,LA BAGUETTERIA,RM,Roma,Via Venti Settembre,23/A,12.4956205,41.9052704,00187,DOMENICA,,
FANTO SRL,INFARINARE RISTORANTE PIZZERIA,RM,Roma,Piazza Vescovio,16/17,12.5124757,41.9330533,00199,MAI,,
FARINIAMO SRLS,FARINIAMO,RM,Roma,Circonvallazione Ostiense,313/315,12.4934056,41.8673282,00154,MAI,,
FAST FISH SRLS,LA PARANZA RISTORANTE PIZZERIA,RM,Roma,Viale Dell'Oceano Pacifico,83,12.45950934721992,41.817101550000004,00144,MAI,,
FAST FOOD INDIANO DI ZAHEER R.M. & M.J.,FAST FOOD,RM,Roma,Via Delle Azzorre,348,12.266948,41.740303,00121,MAI,,
FAUSTO D'AMBROSIO,UNDERGROUND CAFFE,RM,Roma,Via Gela,41587,,,00182,DOMENICA POMERIGGIO,,
FC SRL,META' SUPERMERCATO,RM,Roma,Viale Val Padana,1,12.5228556,41.9427979,00141,MAI,,
FELICIANO BUSCAINI SRL,EFFEPIU' SUPERMERCATI,RM,Roma,Via Dobbiaco,1,12.3834004,41.7385469,00124,MAI,,
FELICIANO BUSCAINI SRL,EFFE PIU  SUPERMERCATI,RM,Roma,Via Sarsina,72/A,12.4062671,41.7959555,00127,MAI,,
FELICIANO BUSCAINI SRL,EFFEPIU' SUPERMERCATI,RM,Roma,Via Delle Ebridi,4,12.2641379,41.7394445,00121,MAI,MULTISTORE GLI AQUILONI,
FERDINANDO SRL,ROSSO POMODORO,RM,Roma,Largo Torre Argentina,1,12.4769722,41.8958998,00186,MAI,,
FERRARA SAS DI ANGELA FERRARA,PIZZERIA TAVOLA CALDA FERRARA,RM,Roma,Viale Della Marina,56/58,12.2774527,41.7310203,00122,MAI,,
FERRI BARBARA,DOLCE ROMA BAR,RM,Roma,Via Serafico,167,12.4908341,41.8307928,00142,SABATO E DOMENICA,,
FIORENZA DI DI MATTIA EMANUELA,CAFFE' FIORENZA,RM,Roma,Piazza Vescovio,22,12.5124757,41.9330533,00199,MAI,,
FLUNCH ITALIA SRL,FLUNCH ROMA BUFALOTTA RISTORANTE,RM,Roma,Via Alberto Lionello,201,12.5386784,41.9701141,00139,MAI,C.C  PORTA DI ROMA,
FLUNCH ITALIA SRL,FLUNCH CAFFE ROMA BUFALOTTA BAR,RM,Roma,Via Alberto Lionello,201,12.5386784,41.9701141,00139,MAI,C.C. PORTA DI ROMA,
FOOD AND FOOD SRL,CANTIERI BISTROT,RM,Roma,Via Cola Di Rienzo,16/20,12.4652093,41.9079707,00192,MAI,,
FOOD FACTORY SRLS,FOOD FACTORY,RM,Roma,Piazza Di San Cosimato,48/49,12.4693233,41.8875504,00153,DOMENICA,,
FOOD IT SRLS,L' OTTAVA MERAVIGLIA,RM,Roma,Via Po,62,12.4995156,41.9176565,00198,DOMENICA,,
FOOD SERVICE SRL,D.P.C.,RM,Roma,Via Vitorchiano,7,12.4877452,41.9564943,00189,DOMENICA,,
FOOD SERVICE SRL,SUPREMA CORTE CASS.,RM,Roma,Piazza Cavour,1,12.667968938588432,41.78781214999999,00193,DOMENICA,,
FOOD SERVICE SRL,MIN. INTERNO,RM,Roma,Via Tuscolana,1548,12.5862858,41.8412955,00173,DOMENICA,MINISTERO INTERNO,
FOOD SERVICE SRL,BAR RETTORATO,RM,Roma,Via Cracovia,SNC,12.6295217,41.8514639,00133,DOMENICA,,
FOOD SERVICE SRL,RISTORANTE LA LIMONAIA,RM,Roma,Via Lazzaro Spallanzani,1A,12.5108893,41.9123034,00161,DOMENICA,,
FOOD SERVICE SRL,BAR C/O FACOLTA MEDICINA,RM,Roma,Via Montpellier,SNC,12.6309093,41.8557061,00133,DOMENICA,,
FOOD ZONE SRL,LE MARK SUPERMERCATO,RM,Roma,Viale Di Castel Porziano,302,12.3523332,41.7324848,00124,MAI,,
FORNO DEGLI AMICI SRL,FORNO DEGLI AMICI,RM,Roma,Via Firenze,51/52,12.4944882,41.9016626,00184,DOMENICA,,
FRAMA 2010 SRL,PUNTO SIMPLY MARKET,RM,Roma,Piazza Cola Di Rienzo,86/C,12.466607,41.9083086,00192,MAI,,
FRANCESCO COLUMBU & C. SNC,SNACK BAR GENNARGENTU,RM,Roma,Via Di Portonaccio,43 A/B,12.5345194,41.9074398,00159,DOMENICA,,
FRANCESCO GIORDANO,RINGO BAR,RM,Roma,Viale Vasco De Gama,43318,12.2722572,41.7353496,00121,DOMENICA,,
FRANCESCO ONOFRI,FRAICHE,RM,Roma,Via Salaria,121/D,12.4985167,41.9195328,00198,SABATO E DOMENICA,,
FRATELLI  FABIO E ROBERTO STAROCCIA E C SNC,STAROCCIA,RM,Roma,Via Sicilia,121,12.4893577,41.9081518,00187,DOMENICA,,
FRATELLI CATALDI SAS,CARREFOUR EXPRESS,RM,Roma,Via Aureliana,1,12.4954548,41.9068003,00187,MAI,,
FRATELLI CAVALIERI SRL,IL VELIERO CAFE RISTORANTE,RM,Roma,Via Ostiense,131/N/O,12.4789164,41.8639051,00154,DOMENICA,,
FRATELLI CRISCIOTTI SAS DI CRISCIOTTI BERNARDINO E C,TRATTORIA F.LLI CRISCIOTTI,RM,Roma,Via Massimo D'azeglio,5,12.6490684,41.7469194,00184,DOMENICA,,
FRATELLI GARBATELLA SRLS,RISTORANTE PIZZERIA LA TORRICELLA 2,RM,Roma,Circonvallazione Ostiense,192,12.4876818,41.8669898,00154,MAI,,
FRATELLI ROCCHI SRL,BOTTEGA ROCCHI,RM,Roma,Via Del Caravita,9,12.4800329,41.899282,00186,MAI,,
FRIENDS FOOD 2017 SRL,SAPORI D' ISCHIA,RM,Roma,Via Marche,19,12.4904417,41.9084253,00187,MAI,,
FROB SRL,ALICE IL NOME DELLA PIZZA,RM,Roma,Circonvallazione Ostiense,353,12.4934056,41.8673282,00154,DOMENICA,,
FROLLANO MIRKO,MODENA PANINERIA,RM,Roma,Via Modena,49,12.4940855,41.9021053,00184,DOMENICA,,
FRUTTA CAPITALE SRL,ZAZIE,RM,Roma,Via Cesare Bosi,7,12.5000237,41.9118554,00198,SABATO E DOMENICA,,
FUTURA PORTICO SRL,CATINARI,RM,Roma,Via Di Santa Maria Del Pianto,16,12.4761049,41.8934747,00186,MAI,,
G.A.R. SRL,IL PAPERO GIALLO SELF SERVICE,RM,Roma,Via Vaglia,13/21,12.5146581,41.9498629,00139,DOMENICA,,
G.P. SRL,CARREFOUR EXPRESS,RM,Roma,Via Alessandro Piola Caselli,101,12.2859795,41.7378588,00122,MAI,,
G.P. SRL,CARREFOUR EXPRESS,RM,Roma,Via Casal Palocco,28,12.356838846135048,41.74441063287904,00124,MAI,,
GAGE SRL,CAFFE CAMBRIDGE,RM,Roma,Viale Regina Margherita,67/69,12.5053302,41.9140578,00198,MAI,,
GAGLIO GIUSEPPE,PIZZERIA DI GIANNI,RM,Roma,Via Dei Sommozzatori,53,12.4814222,41.8222131,00143,DOMENICA,,
GAIA 2010 SRLS CON SOCIO UNICO,TERRA MIA-RISTORANTE BAR PIZZERIA,RM,Roma,Via Reggio Emilia,10,12.5029981,41.9121665,00198,DOMENICA,,
GAMFOOD SRL,PAGNOTELLA GOURMET,RM,Roma,Via Tacito,34/36,12.4671573,41.9075572,00193,MAI,,
GAO CHI LANG,RISTORANTE VIP CINESE E GIAPPONESE,RM,Roma,Via Dell'Arcadia,71,12.4920514,41.8531391,00147,MAI,,
GARGANI VALERIO SRL,GARGANI RISTORANTE,RM,Roma,Via Lombardia,15/17,12.4874906,41.907668,00187,MAI,,
GATTI SRL,CONAD CITY,RM,Roma,Via Georges Sorel,25,12.564326,41.8969851,00177,MAI,,
GATTI SRL,CONAD CITY,RM,Roma,Via Prenestina,250/H,12.559325,41.8949716,00177,MAI,,
GE.BAR SRL,TOMAS BAR,RM,Roma,Via Oreste Tommasini,38/44,12.5257375,41.9197577,00162,DOMENICA,,
GE.PI.R. SNC DI FULLONE D. E G.,TAVOLA CALDA,RM,Roma,Via Castani,50,12.566727,41.8826474,00172,DOMENICA,,
GELATI DI PIETRA SRL,IL PANINO INGEGNOSO,RM,Roma,Piazza Di Pietra,35,12.4791901,41.8999682,00186,MAI,,
GEMA COMMERCIALE SRL IN LIQUIDAZIONE,TUODI MARKET,RM,Roma,Via Di Boccea,236A-238,,,00167,MAI,,
GERVIT SRL,RED CARPET,RM,Roma,Via Forlì,47,12.5139095,41.9091726,00161,DOMENICA,,
GESCRALBAR SRL,GESCRAL BAR,RM,Roma,Via Antonio Baiamonti,25,12.459963,41.9146559,00195,SABATO E DOMENICA,,
GESPAC SRL,CONAD SUPERSTORE SUPERMERCATO,RM,Roma,Via Nocera Umbra,SNC,12.5288369,41.8781401,00181,MAI,,
GESPAC SRL,CONAD SUPERSTORE SUPERMERCATO,RM,Roma,Viale Isacco Newton,51/53/55 59,,,00151,MAI,,
GESPAC SRL,CONAD SUPERSTORE,RM,Roma,Via Ignazio Giorgi,53/A,12.5226236,41.918752,00162,MAI,,
GESPAC SRL,CONAD SUPERSTORE SUPERMERCATO,RM,Roma,Via Attilio Ambrosini,183,12.4915688,41.8504685,00147,MAI,,
GESPAC SRL,CONAD SUPERSTORE,RM,Roma,Via Tuscolana,950,12.5498634,41.8634222,00174,MAI,,
GESTAR 1 SRL,CONAD MARKET,RM,Roma,Via Taranto,204,12.517281,41.8840145,00182,DOMENICA,,
GESTI. DIR. SRL,BAKE,RM,Roma,Largo Del Bronzino,43377,12.4948946,41.8307048,00142,DOMENICA,,
GESTI. DIR. SRL,COFFEE AND CO,RM,Roma,Viale Palmiro Togliatti,2,12.571520021216994,41.853063000000006,00173,MAI,,
GESUALDI ANTONIETTA,CAFFETTERIA TREVIS,RM,Roma,Via Giacomo Trevis,46,12.4987097,41.8644638,00147,DOMENICA,,
GFM SRL,CONAD,RM,Roma,Corso Trieste,200,12.5076679,41.9151535,00198,MAI,,
GFM SRL,CONAD,RM,Roma,Via Cardinale Di York,2,,,00148,MAI,,
GI.MAD. DE SANTIS SANDRO & C. SNC,PIZZA E POLLI ATENEO,RM,Roma,Piazza Dell'Ateneo Salesiano,40,12.5241323,41.9595239,00139,MAI,,
GIGLIO SRL,RISTORANTE DEL GIGLIO,RM,Roma,Via Torino,137,12.4955986,41.9014889,00184,DOMENICA,,
GIOVA SRL,BEAT,RM,Roma,Via Fabio Massimo,51,12.4622124,41.9088108,00192,DOMENICA,,
GIRODOLIO DI GIANLUCA REGAZZO,GIRODOLIO,RM,Roma,Via Fabio Massimo,16,12.4628212,41.9077239,00192,DOMENICA,,
GIUMA SRL,RISTORANTE GIUMA,RM,Roma,Piazza Alessandria,23,12.501552593108695,41.911280700000006,00198,DOMENICA,,
GO DISTRIBUZIONE SRL,PAM,RM,Roma,Via Lemonia,187,12.5590766,41.8527284,00174,MAI,,
GO DISTRIBUZIONE SRL,META,RM,Roma,Viale Dei Colli Portuensi,191,12.443919,41.8666232,00151,MAI,,
GOLA SRL,BAR TENTAZIONI,RM,Roma,Via Silvio D'Amico,115,12.481293,41.8502818,00145,MAI,,
GOURMET SERVICE SRL,PAGNOTELLA GOURMET,RM,Roma,Viale Beethoven,90,12.467229,41.8339338,00144,DOMENICA,,
GOURMETTANDO SRLS,PANINA GASTRONOMIA,RM,Roma,Viale Europa,310,12.4737349,41.8294942,00144,SABATO E DOMENICA,,
GPS  ALIMENTARI SRL,IPERTRISCOUNT  GPS  ALIMENTARI,RM,Roma,Via Orvieto,44,12.517058375000001,41.884914825,00182,MAI,,
GRACOS SRL,PEWEX SUPERMERCATI,RM,Roma,Viale Guglielmo Marconi,37,12.4707132,41.8587925,00146,MAI,,
GRAMAR SRL,IPERCARNI,RM,Roma,Via Casilina,1846,12.6637961,41.8643865,00132,MAI,,
GRAN CAFFE' FRUIT E COFFEE SRLS,GRAN CAFFE' FRUIT E COFFEE,RM,Roma,Via Di Capo Le Case,27,12.4844145,41.9038497,00187,MAI,,
GRAN CAFFE' SWEET & SAVORY SRLS,GRAN CAFFE',RM,Roma,Via Delle Quattro Fontane,28,12.4923341,41.9010516,00184,DOMENICA,,
GRAN CATERING SRL,GU GRAN CAFFE,RM,Roma,Viale Dell'Aeronautica,25/31,12.4754014,41.8259588,00144,MAI,,
GREEN BAR SNC,GREEN BAR,RM,Roma,Via Cesare Beccaria,9,12.4745476,41.9127761,00196,SABATO E DOMENICA,,
GRIF CAFE' 2 SRL,GRIF CAFE',RM,Roma,Via Gracchi,203,12.4648278,41.9085687,00192,DOMENICA,,
GRIF CAFE' SRL,GRIF CAFE' TAVOLACALDA,RM,Roma,Viale Giuseppe Mazzini,49/51,12.4566886,41.9157881,00195,DOMENICA,,
GRUPPO ARGENTI SRL,PUNTO SIMPLY,RM,Roma,Piazza Cola Di Rienzo,86/C,12.466607,41.9083086,00192,MAI,,
GRUPPO ARGENTI SRL,SIMPLY MARKET,RM,Roma,Via Fabio Massimo,35/37,12.4622124,41.9088108,00192,MAI,,
GRUPPO ARGENTI SRL,PUNTO SIMPLY,RM,Roma,Piazza Di S Maria Liberatrice,43160,,,00153,MAI,,
GRUPPO CATALDI SRL,CARREFOUR EXPRESS,RM,Roma,Viale Arturo Crocco,51,12.3952561,41.821671,00148,MAI,,
GRUPPO CATALDI SRL,CARREFOUR EXPRESS,RM,Roma,Via Di Grotta Perfetta,141/147,12.514968,41.8323737,00142,MAI,,
GRUPPO NEGOZI SRL,LA PIADINERIA,RM,Roma,Via Alberto Lionello,201,12.5386784,41.9701141,00139,MAI,GALL. COMM. PORTA DI ROMA,
GRUPPO NEGOZI SRL,LA PIADINERIA,RM,Roma,Via Appia Nuova,48,12.5100799,41.8852976,00183,MAI,C.C. HAPPIO,
GRUPPO NEGOZI SRL,LA PIADINERIA,RM,Roma,Viale Palmiro Togliatti,2,12.571520021216994,41.853063000000006,00173,MAI,,
GRUPPO NEGOZI SRL,LA PIADINERIA,RM,Roma,Via Alberto Pollio,50,12.5342341,41.9002133,00159,MAI,,
GRUPPO NEGOZI SRL,LA PIADINERIA,RM,Roma,Viale Luigi Schiavonetti,426,12.6048745,41.8435365,00173,MAI,CARREFOUR,
GRUPPO NEGOZI SRL,LA PIADINERIA,RM,Roma,Viale Di Valle Aurelia,SNC,12.4363929,41.9061455,00167,MAI,,
GRUPPO NEGOZI SRL,LA PIADINERIA,RM,Roma,Corso Vittorio Emanuele Ii,275,12.4675571,41.8988862,00186,MAI,,
GRUPPO NEGOZI SRL,LA PIADINERIA,RM,Roma,Viale America,143,12.4694882,41.8293026,00144,MAI,,
GRUPPO NEGOZI SRL,LA PIADINERIA,RM,Roma,Via Enrico Ferri,8,12.599349833988352,41.85117005,00173,MAI,C.C. LA ROMANINA,
GRUPPO NEGOZI SRL,LA PIADINERIA,RM,Roma,Via Collatina,SNC,12.582641,41.9032967,00153,MAI,C.C. ROMA EST,
GRUPPO NEGOZI SRL,LA PIADINERIA,RM,Roma,Viale Dell'Oceano Pacifico,SNC,12.4598185,41.8212777,00144,SABATO E DOMENICA,C.C. EROMA 2,
GS SPA,CARREFOUR MARKET,RM,Roma,Via Gregorio Vii,127,12.4397948,41.8958826,00165,MAI,,
GS SPA,CARREFOUR MARKET,RM,Roma,Via Casilina,288,12.5382651,41.8811773,00176,MAI,,
GS SPA,CARREFOUR MARKET,RM,Roma,Viale Ventuno Aprile,23,12.5201971,41.9191856,00162,MAI,,
GS SPA,CARREFOUR MARKET,RM,Roma,Via Di Grotta Di Gregna,SNC,12.5649442,41.9083202,00155,MAI,,
GS SPA,CARREFOUR MARKET,RM,Roma,Via Giacomo Bove,4-A-C-D,12.4814999,41.8711025,00154,MAI,,
GS SPA,CARREFOUR MARKET,RM,Roma,Piazzale Eugenio Morelli,52,12.4428671,41.8612153,00151,MAI,,
GS SPA,CARREFOUR MARKET,RM,Roma,Via Elio Donato,27,12.4423835,41.9127756,00136,MAI,,
GS SPA,CARREFOUR MARKET,RM,Roma,Piazzale Della Staz Del Lido,18/20,12.2839754,41.7324772,00122,MAI,,
GS SPA,CARREFOUR MARKET,RM,Roma,Via Tuscolana,1039,12.5222244,41.879158,00182,MAI,,
GS SPA,CARREFOUR MARKET,RM,Roma,Via Ottone Fattiboni,117/147,,,00126,MAI,,
GS SPA,CARREFOUR MARKET,RM,Roma,Via Antonio Criminali,32,12.3406407,41.7768415,00126,MAI,,
GS SPA,CARREFOUR MARKET,RM,Roma,Via Città Della Pieve,42/52,12.4739616,41.9448359,00191,MAI,,
GS SPA,CARREFOUR MARKET,RM,Roma,Via Gregorio Xi,201/209,12.3947661,41.885911,00166,MAI,,
GS SPA,CARREFOUR MARKET,RM,Roma,Viale Antonio Ciamarra,243/253,12.5902893,41.8559673,00173,MAI,,
GS SPA,CARREFOUR MARKET,RM,Roma,Via Ernesto Boezi,SNC,12.3685145,41.7390275,00124,MAI,,
GS SPA,CARREFOUR MARKET,RM,Roma,Viale Degli Eroi Di Rodi,16,12.4361548,41.7820318,00128,MAI,,
GS SPA,CARREFOUR MARKET,RM,Roma,Vale Apelle,SNC,12.355475,41.7519507,00124,MAI,,
GS SPA,CARREFOUR MARKET,RM,Roma,Via Delle Fornaci,136/154,12.4570427,41.8964101,00165,MAI,,
GS SPA,CARREFOUR MARKET,RM,Roma,Via Della Pineta Sacchetti,199,12.428591972243575,41.93678755,00168,MAI,,
GS SPA,CARREFOUR MARKET,RM,Roma,Via Dei Sabelli,125/129,12.5173145,41.8980117,00185,MAI,,
GS SPA,CARREFOUR MARKET,RM,Roma,Via Cesare Baronio,161/165,12.5188502,41.871966,00179,MAI,,
GS SPA,CARREFOUR MARKET,RM,Roma,Via Alesia,35/37,12.5016557,41.8809017,00183,MAI,,
GS SPA,CARREFOUR MARKET,RM,Roma,Via Ignazio Persico,82,12.4864774,41.866354,00154,MAI,,
GS SPA,CARREFOUR MARKET,RM,Roma,Via Dell'Acquedotto Peschiera,22/30/A,,,00135,MAI,,
GS SPA,CARREFOUR MARKET,RM,Roma,Viale Giorgio De Chirico,78/88,12.5850091,41.9021353,00155,MAI,,
GS SPA,CARREFOUR MARKET,RM,Roma,Via Teodoro Monticelli,44440,12.4804131,41.9233954,00197,MAI,,
GS SPA,CARREFOUR MARKET,RM,Roma,Largo Del Bronzino,13,12.4948946,41.8307048,00142,MAI,,
GS SPA,CARREFOUR MARKET,RM,Roma,Via Dei Prati Fiscali,SNC,12.5252645,41.9459563,00141,MAI,,
GS SPA,CARREFOUR MARKET,RM,Roma,Via Casilina,995,12.5646576,41.8748036,00172,MAI,,
GS SPA,CARREFOUR MARKET,RM,Roma,Via Ugo Ojetti,SNC,12.5523297,41.9447107,00137,MAI,,
GS SPA,CARREFOUR MARKET,RM,Roma,Piazzale Degli Eroi,13,12.447084089193737,41.90899835,00128,MAI,,
GS SPA,CARREFOUR MARKET,RM,Roma,Largo Lamberto Loria,6,12.498873911370925,41.86186285,00147,MAI,,
GS SPA,CARREFOUR MARKET,RM,Roma,Via Germania,SNC,12.4695077,41.6154456,00196,MAI,,
GS SPA,CARREFOUR MARKET,RM,Roma,Via Dei Cessati Spiriti,8/BC,12.5297399,41.866568,00179,MAI,,
GUSTOFFICE SRLS,GUSTOFFICE BISTROT,RM,Roma,Via Zoe Fontana,220,12.606986256058027,41.92805025,00131,SABATO E DOMENICA,,
HABEMUS PINSA SRL,HABEMUS PINSA RISTORANTE PIZZERIA,RM,Roma,Via Umbria,19/21/23,12.4922009,41.9062845,00187,DOMENICA,,
HD SRL,CONAD,RM,Roma,Via Di Valle Aurelia,124,12.4366853,41.9079387,00167,MAI,,
HEDI'S BAR SNC DI MOSBAHI HEDI BEN ALI',HEDI'S BAR,RM,Roma,Via Francesco Carrara,7,12.4746954,41.9123859,00196,DOMENICA,,
HOJATI HAMID REZA E C. S.A.S.,HOJATI SNACK BAR,RM,Roma,Viale Castrense,7/C,12.5186271,41.8883978,00182,DOMENICA,,
HOME CAFE' E BISTROT DI NAPOLI MARIATERESA,HOME CAFE' AND BISTROT,RM,Roma,Via Calabria,26,12.5607132,42.1186727,00187,DOMENICA,,
HOPE SRLS,BAR OASIES,RM,Roma,Via Villafranca,1/A,12.5054399,41.904855,00185,MAI,,
HUG E CO BURGER COMPANY SRL,UVE E FORME,RM,Roma,Via Padova,43318,12.5190571,41.9110415,00161,DOMENICA,,
I DUE CIARLI SRLS,HOSTERIA DEL PANINO,RM,Roma,Via Nizza,42/44,12.5002095,41.912433,00198,SABATO E DOMENICA,,
I DUE FRATELLI DI SERAFINI E C. SNC,I DUE FRATELLI,RM,Roma,Via Orazio Dello Sbirro,SNC,12.276632,41.7331764,00121,DOMENICA,MERCATO COPERTO ORAZIO DELLO SBIRRO,
I DUE SECONDA 90 SRL,I DUE SECONDA,RM,Roma,Circonvallazione Nomentana,580,12.5273399,41.9174465,00162,DOMENICA,,
I MOLISANI SNC,PIZZERIA TAVOLA CALDA,RM,Roma,Via Bergamo,5/B/C,12.5001093,41.9112646,00198,MERCOLEDI',,
I SICILIANI EUR S.R.L.,I SICILIANI,RM,Roma,Viale Europa,134,12.4601280240879,41.82740918242351,00144,MAI,,
I SICILIANI SUNRISE SRLS,RISTORANTE I SICILIANI,RM,Roma,Via Servio Tullio,43382,12.4975316,41.9073517,00187,MAI,,
I SICILIANI SUNRISE SRLS,I SICILIANI,RM,Roma,Via Venti Settembre,45,12.4956205,41.9052704,00187,MAI,,
IANNUZZIELLO NUNZIO DONATO,MORDI E FUGGI,RM,Roma,Via Silvio Spaventa,9,12.4954548,41.9068003,00187,SABATO E DOMENICA,,
IL BARONE RAMPANTE DI BARBETTI ALBERTO,IL BARONE RAMPANTE,RM,Roma,Via Tito Omboni,163/165,12.5013806,41.8656284,00147,DOMENICA,,
IL BOSCHETTO SRL,CONAD CITY SUPERMERCATO,RM,Roma,Via Val Di Non,41/43/45/47,12.5175807,41.9447064,00141,MAI,,
IL BOSCHETTO SRL,CONAD CITY SUPERMERCATO,RM,Roma,Via Del Boschetto,52,12.4904147,41.897518,00184,MAI,,
IL CAFFETTINO SRL,IL CAFFETTINO,RM,Roma,Via Monte Santo,43255,12.4594935,41.9154825,00195,DOMENICA,,
IL MAGNACOLO DI RE.AR. SRL,IL MAGNACOLO,RM,Roma,Via Andrea Solario,58,12.4867442,41.8379542,00142,SABATO E DOMENICA,,
IL MIGLIO 2018 SRL,MORENO,RM,Roma,Piazza Bologna,39/A,12.5206233,41.9139636,00162,MAI,,
IL NUOVO PAPERO SNC DI VITIELLO GAETANO E ROCCHI MAURO,IL NUOVO PAPERO,RM,Roma,Largo Luigi Antonelli,41609,12.4845302,41.8510301,00145,SABATO E DOMENICA,,
IL NUOVO SOLE SRL,LA CUCCUMA,RM,Roma,Via Merulana,221,12.5033626,41.8894574,00185,MAI,,
IL PIZZETTIERE SNC DI LANCIOTTI MASSIMO & C.,IL PIZZETTIERE,RM,Roma,Piazza S Maria Liberatrice,21,,,00153,DOMENICA,,
IL QUADRIFOGLIO SRL,CONAD CITY SUPERMERCATO,RM,Roma,Via Ipogeo Degli Ottavi,61/79,12.4079884,41.9656285,00135,MAI,,
IL SICILIANO PSG SRL,IL SICILIANO,RM,Roma,Viale Europa,351,12.4691938,41.8308093,00144,MAI,,
INCANTESIMO SRL,MIMI' COCO' E PIZZA,RM,Roma,Viale Leonardo Da Vinci,264/266,12.4805662,41.8585698,00145,DOMENICA,,
INNOVATION LAB SRLS,XTRA ONE COFFEE,RM,Roma,Via Lombardia,21,12.4874906,41.907668,00187,MAI,,
INVERSA LUCIANO,LA PIZZERIA DEL MERCATO,RM,Roma,Via Cesare Ricotti,72,12.5352028,41.8993528,00159,MARTEDI',,
IPERCARNI SRL,IPERCARNI SUPERMERCATO,RM,Roma,Via Enrico Ferri,26,12.5989964,41.8505818,00173,MAI,,
IPPOCRATE 94 SRL,PIZZERIA IPPOCRATE,RM,Roma,Viale Ippocrate,92/94,12.5183316,41.9076443,00161,DOMENICA,,
IRIS BAR SRL,IRIS BAR,RM,Roma,Via Giovanni Battista Morgagni,30/L,12.5106639,41.9098011,00161,MAI,,
ITALIANA SUPERMERCATI SRL,PEWEX SUPERMERCATI,RM,Roma,Via Cassia,2019,12.375529494959308,42.032481149999995,00123,MAI,,
JENKY SRLS,CAFFE' VINTAGE,RM,Roma,Via Sicilia,148,12.4893577,41.9081518,00187,SABATO E DOMENICA,,
JESSICA 95 SRL,BUDDY,RM,Roma,Corso Vittorio Emanuele Ii,107/A,12.4728305,41.8968872,00186,MAI,,
JOHNNMEZZANOTTE SRL,JOHNNMEZZANOTTE,RM,Roma,Viale Europa,322,12.4691938,41.8308093,00144,MAI,,
JUSTIN SRL,JUSTIN BAR,RM,Roma,Corso D'Italia,38/G/L,12.4940073,41.9109926,00198,DOMENICA,,
KEPAL SRL,CARREFOUR MARKET,RM,Roma,Via Ajaccio,29,12.5093341,41.9190832,00198,MAI,,
KIKO SRL,RISTORANTE ANNI CINQUANTA,RM,Roma,Via Flavia,3/A/D,12.670462,41.7205491,00187,MAI,,
KOINE SRL,VERO FOOD AND SMILES,RM,Roma,Via Venti Settembre,26,12.4956205,41.9052704,00187,MAI,,
L ESSENZA DEL CIBO SRLS,L ESSENZA DEL CIBO,RM,Roma,Piazza Attilio Pecile,54,12.4856417,41.8687779,00154,DOMENICA POMERIGGIO,,
LA CICOLANA SRLS,PIZZERIA RUSTICA,RM,Roma,Via Gerolamo Cardano,66,12.4683476,41.8634439,00146,DOMENICA,,
LA GINESTRA SRL,BAR INTERNO,RM,Roma,Via Venti Settembre,20,12.4953601,41.9052907,00187,SABATO E DOMENICA,MINISTERO AGRICOLTURA,
LA MACELLERIA POKER SRLS,LA MACELLERIA POKER,RM,Roma,Via Roberto Malatesta,21/23,12.5371934,41.8874287,00176,DOMENICA,,
LA NUOVA ERA SRL,LA NUOVA ERA BAR,RM,Roma,Via Cina,56,12.4376759,41.8163368,00144,DOMENICA,,
LA NUOVA NAPOLETANA SRL,LA NUOVA NAPOLETANA,RM,Roma,Via Antoniotto Usodimare,34,12.4944923,41.8679824,00154,DOMENICA,,
LA RICCA IDEA SRL,LA RICCA IDEA,RM,Roma,Via Fulcieri Paulucci Calboli,50/52,12.461485,41.9165456,00195,MAI,,
LA RINASCENTE SPA,LA RINASCENTE BAR,RM,Roma,Via Aniene,1,12.4969064,41.9116588,00198,MAI,RINASCENTE,
LA RINASCENTE SPA,LA RINASCENTE,RM,Roma,Piazza Fiume,SNC,12.4981727,41.9105769,00198,MAI,,
LA ROSA DEI VENTI SNC DI DE SANTIS ROSA MARIA E C.,LA ROSA DEI VENTI,RM,Roma,Piazza Monte Baldo,3/A,12.5340195,41.9370738,00141,DOMENICA,,
LAB 14 SRL,IPERCARNI MARKET,RM,Roma,Via Marco Papio,30/32,12.5513989,41.8658191,00175,MAI,,
LADISA SPA,BAR MINISTERO,RM,Roma,Viale Dell'Arte,16,12.4741815,41.832004,00144,SABATO E DOMENICA,,
LAGABI SRL,LA GALLINA BIANCA,RM,Roma,Via Antonio Rosmini,9,12.4975118,41.8998681,00184,MAI,,
L'ALIMENTARISTA SRL,CENTRO ALIMENTARI,RM,Roma,Via Cesare Ricotti,38/40,12.5352028,41.8993528,00159,DOMENICA,,
L'ANGOLO DELLE BONTA' SNC DI SALVATORI CESARE,L'ANGOLO DELLE BONTA',RM,Roma,Via Caio Canuleio,16/18/20,12.5626529,41.8515235,00174,DOMENICA,,
L'ARANCINA SRL,MONDO ARANCINA,RM,Roma,Via Marcantonio Colonna,38/40,12.4665671,41.9106758,00192,MAI,,
L'ARTE DELLA PIZZA DI MOHAMMED TOPON,L'ARTE DELLA PIZZA,RM,Roma,Via Luigi Santini,43224,12.469176,41.887049,00153,MAI,,
LATROFA ANNAMARIA SNC,BAR,RM,Roma,Via Vercelli,56,12.5166393,41.8818098,00182,DOMENICA,,
LE DELIZIE DELLA TAVOLA SRL,LE DELIZIE DELLA TAVOLA,RM,Roma,Via Del Ponte Delle Sette Miglia,40,12.6031129,41.8423655,00173,DOMENICA,,
LE DOLCI TENTAZIONI SRL,TORNATORA,RM,Roma,Viale Della Grande Muraglia,320,12.4556417,41.8227544,00144,MAI,,
LEGNO E FERRO - ATENA SRLS,FERRO 54,RM,Roma,Via Angelo Bargoni,60,12.4691019,41.8809892,00153,SABATO,,
LEONINA 2017 SRLS,PIZZERIA LEONINA,RM,Roma,Via Leonina,84,12.4913222,41.894647,00184,MARTEDI',,
LIN SHUANGQIANG,RISTORANTE TOYAMA,RM,Roma,Via Della Lega Lombarda,41913,,,00162,MAI,,
LO SPUNTINO 2014 SRL,LO SPUNTINO,RM,Roma,Viale Giulio Cesare,28,12.4568508,41.9090795,00192,SABATO E DOMENICA,,
LOMETA SRL,LE MARK SUPERMERCATO,RM,Roma,Via Del Fosso Di San Matteo,17/35,12.6501991,41.8203925,00133,MAI,,
LOPEZ SARA DEBORA,PIZZAMANIA,RM,Roma,Via Dei Traghetti,69,12.2782974,41.7360992,00121,MARTEDI',,
LUCARELLI ORIGINAL SRL,BISTRO L,RM,Roma,Piazza Ragusa,61,12.5222158,41.8814116,00182,MAI,,
LUEMA SRL,PIZZA E DINTORNI,RM,Roma,Via Laurentina,912,12.4808313,41.8010134,00143,DOMENICA,,
LUNA MEDITERRANEA SRL,ALICE PIZZA,RM,Roma,Via Romagna,28,12.4943201,41.9094296,00187,DOMENICA,,
LUPI SUPERMERCATI SRL,PUNTO SIMPLY SUPERMERCATO,RM,Roma,Piazza Di S Maria Liberatrice,43160,,,00153,MAI,,
LUPI SUPERMERCATI SRL,PUNTO SIMPLY SUPERMERCATO,RM,Roma,Piazza Testaccio,21/25,12.4765733,41.8797335,00153,MAI,,
LUSTRATI DOMENICO,POK POLL'OK,RM,Roma,Via Cesare Paoletti,24/26,12.5001516,41.9109151,00198,MAI,,
M & D SRL,GEDA CAFFE,RM,Roma,Via Giacomo Trevis,86,12.4987097,41.8644638,00147,SABATO E DOMENICA,,
M E C SAS DI CENESI MASSIMO E C,BAR CAFFETTERIA TAVOLA CALDA,RM,Roma,Via Benedetto Croce,53/55,12.4842044,41.8417514,00142,DOMENICA,,
M. & R. FOOD HALL SRL,CAFE' BUD BAR,RM,Roma,Via Ovidio,42705,12.4643799,41.9066354,00193,DOMENICA,,
M. E G. DI M. E G. LATTANZI SNC,PIZZIDEA,RM,Roma,Viale Adriatico,135,12.536697,41.9420685,00141,DOMENICA,,
M.ANT.A 97 SRL,ALARI,RM,Roma,Via Portuense,106/B,12.4680428,41.8774685,00153,LUNEDI',,
M.V.M. SRL,CAFFETTERIA DEI GRACCHI,RM,Roma,Via Gracchi,108/112,12.4648278,41.9085687,00192,MAI,,
M2G SRL,REGUSTO,RM,Roma,Viale Dell'Arte,5,12.4755924,41.8319658,00144,MAI,,
MA.LU.GIO. SRL,CAFE' BISTROT,RM,Roma,Via Gabriello Chiabrera,128,12.4793762,41.8542127,00145,MAI,,
MACAO SRL,COFFEE AND CAKE,RM,Roma,Corso Trieste,18,12.5076679,41.9151535,00198,DOMENICA,,
MACCHIA MARIANNA,PIZZERIA MEDITERRANEA,RM,Roma,Via Agostino Depretis,76,12.4959881,41.8989269,00184,DOMENICA,,
MACINANTI SRL,MACINANTI RISTORANTE,RM,Roma,Via Elio Vittorini,45/47,12.4702692,41.8187209,00144,DOMENICA,,
MAGESTIC SRL,CONAD,RM,Roma,Via Della Magliana,224,12.4459624,41.8331116,00146,MAI,,
MAIORINO ANTONIO,GRAN CAFFE' MAIORINO,RM,Roma,Viale Giuseppe Mazzini,104,12.4566886,41.9157881,00195,DOMENICA,,
MALICA SNC DI TIMPANARO E CARTA,ALICE PIZZA,RM,Roma,Via Lazio,15,12.487691,41.9085176,00187,DOMENICA,,
MALVA SRL,AGOSTINI DAL 1968,RM,Roma,Via Costantino Corvisieri,28/32,12.5213504,41.9200352,00162,DOMENICA,,
MAMA DI GUGGIOLI MAURO,GUSTERIA AL 17,RM,Roma,Via Natale Del Grande,17,12.4698611,41.8871528,00153,MAI,,
MAMIANI BAR SRL,DOMUS ALTIERI BISTROT,RM,Roma,Via Del Gesù,94,12.4787962,41.8972951,00186,MAI,,
MAN GIO SRL,IL GUSTO GASTRONOMIA,RM,Roma,Via Gaetano Lodi,26,12.6053043,41.8423665,00173,SABATO E DOMENICA,,
MAO WEI,RISTORANTE CINESE,RM,Roma,Via Gela,81/83,12.520192,41.87853,00182,MAI,,
MAR E PI SRL,LA DOLCE VITA CAFFETTERIA,RM,Roma,Vicolo Del Casal Lumbroso,85,,,00166,DOMENICA,,
MAR.ISA SRL,RIK'S CAFE' BAR RESTAURANT,RM,Roma,Via Dei Mille,7/A,12.5042998,41.9028948,00185,MAI,,
MARCEDDU SILVANO,PIZZERIA DEL SECOLO,RM,Roma,Via Palestro,62,12.5069418,41.9027291,00185,MAI,,
MARCELLINI IVANO,BAR TRATTORIA DA IVANO,RM,Roma,Via Portuense,1433,12.347866194444439,41.8184825,00148,DOMENICA,,
MARCOCCI BRUNO,PANBISCOTTO,RM,Roma,Viale Antonio Ciamarra,164/A,12.5902893,41.8559673,00173,DOMENICA,,
MARGIOTTA ALESSANDRO,MACELLERIA MARGIOTTA,RM,Roma,Via Stefano Oberto,SNC,12.5861323,41.8520525,00173,DOMENICA,,
MARINVEST SRL,IPERCARNI SUPERMERCATO,RM,Roma,Viale Dell'Esercito,38,12.4963641,41.8066958,00143,MAI,,
MARKET 2S SRL,CONAD CITY,RM,Roma,Via Dei Crispolti,60,12.5494097,41.9090007,00159,DOMENICA,,
MARKET 3S SRL,CONAD,RM,Roma,Piazza R Balsamo Crivelli,29,,,00159,DOMENICA POMERIGGIO,,
MARTINA MANDARA,MOKASIRS COFFE BAR,RM,Roma,Circonvallazione Ostiense,253,12.4934056,41.8673282,00154,DOMENICA,,
MASED DI FRATINI SERGIO E C,MINI MARKET,RM,Roma,Via Enzo Benedetto,7/A/B,12.5815347,41.8329421,00173,MAI,,
MAUGERI MAURIZIO,MACELLERIA,RM,Roma,Via Dell'Appagliatore,BOX C1,,,00121,DOMENICA,MERCATO BOX C1,
MAURO DONFRANCESCO,BAR GASTRONOMIA,RM,Roma,Via Magenta,7,13.2795689,41.5385711,00185,MAI,,
MAX ANT SRL,BAR MAX CAFFE NIAGARA,RM,Roma,Piazza Dell'Indipendenza,18,12.50247900915856,41.90436605,00185,MAI,,
MAZAL SRL,CREO BOULANGERIE,RM,Roma,Via Salaria,22,12.4985167,41.9195328,00198,MAI,,
MAZZA MASSIMO,SCACCO MATTO BAR,RM,Roma,Viale Vasco De Gama,251,12.2722572,41.7353496,00121,DOMENICA POMERIGGIO,,
MBGOODS SRLS,HOMY,RM,Roma,Viale Avignone,128,12.4539196,41.818499,00144,MAI,,
MC RISTORAZIONE SRL,LA LOCANDA DEL TEMPIO,RM,Roma,Via Di Pietra,85,12.4802101,41.8999958,00186,MAI,,
MECAM SRL,SIMPLY,RM,Roma,Via Tagliamento,36,12.5042192,41.9208829,00198,MAI,,
MEDIS SRL,TIGRE AMICO SUPERMERCATO,RM,Roma,Via Faleria,30,12.5106793,41.8835905,00183,MAI,,
MELA VERDE SRL,MELA VERDE CAFFE',RM,Roma,Via Paolo Di Dono,41/43/45,12.493346,41.8300845,00142,DOMENICA,ROMA EUR,
MENNI SRL,TIGRE AMICO SUPERMERCATO,RM,Roma,Largo Benedetto Marcello,1,12.4975656,41.9187051,00198,MAI,,
MENU COMPANY SRL,BISTROT LUCE,RM,Roma,Via Silvestri,232,12.4378197,41.8777895,00164,MAI,,
MENU COMPANY SRL,HOSTARIA LUCE,RM,Roma,Via Della Luce,44,12.4746903,41.8880893,00153,MAI,,
MERCATO CENTRALE ROMA TERMINI SRL,MERCATO CENTRALE ROMA,RM,Roma,Via Giovanni Giolitti,36,12.5035512,41.8988768,00185,MAI,,
MERCEDE 19 SRLS,PASTA MIA,RM,Roma,Via Della Mercede,19,12.4821672,41.903293,00187,MAI,,
MERCURI SRL,MERCURI,RM,Roma,Viale Ventuno Aprile,65,12.5202526,41.9158292,00162,DOMENICA,,
MIDA SNC,BAR MIDA,RM,Roma,Via Nomentana,61,12.5133326,41.917478,00161,SABATO E DOMENICA,,
MIGLIARO COSTANZA,BAR DELLO STADIO,RM,Roma,Via Mar Arabico,28,12.3009917,41.7342094,00122,MAI,,
MILELLIS BAR SAS DI FRANCIS ELLIS,BADAPEST BAR,RM,Roma,Viale Capitan Consalvo,13,12.2784839,41.7325452,00122,DOMENICA,,
MILLEVOLTEEMME SRLS,ACQUA E FARINA,RM,Roma,Corso Vittorio Emanuele Ii,260,12.4728305,41.8968872,00186,DOMENICA POMERIGGIO,,
MINI MONDO SRL,CARREFOUR SUPERMERCATO,RM,Roma,Via Dei Giardinetti,137/139,,,00133,MAI,,
MINI SNC DI BELCIUG E MICHELE PATACCHIA,BAR I GASTRONOMI,RM,Roma,Via Gaeta,43,12.5020383,41.9055951,00185,MAI,,
MISSIONE BENESSERE ROMA SRL,VITALITY FOOD,RM,Roma,Piazza Dell'Indipendenza,8,12.503113,41.904244,00185,MAI,,
MISTER PIZZA DI ALBERTO PAOLETTI,MISTER PIZZA,RM,Roma,Via Alessandria,80,12.5005346,41.9105957,00198,DOMENICA,,
MITICA COUTURE SRL,LE MYTHIQUE BISTROT,RM,Roma,Via Ugo Ojetti,466,12.5523297,41.9447107,00137,MAI,,
MOCCA SRL,CONAD,RM,Roma,Via Di S Croce In Gerusalemme,14,,,00185,MAI,,
MOLLICA OSVALDO,ALIMENTARI,RM,Roma,Via Oreste Tommasini,51/53,12.5257375,41.9197577,00162,DOMENICA,,
MONDO PIZZA SAS DI ATTA MOUSTAFA A.M. E C,MONDO PIZZA,RM,Roma,Via Giuseppe Marotta,5,12.4823277,41.8150358,00143,SABATO,,
MONFORTANI SRL,RISPARMIO PIU SUPERMERCATO,RM,Roma,Via Prenestina,1390,12.6629431,41.8908702,00132,MAI,,
MONICA OLIVIA,MAOLI LA BOUTIQUE DEI SAPORI,RM,Roma,Via Toscana,32,12.4908031,41.9098917,00187,DOMENICA,,
MONICH SRLS,BAR RISTORANTE ANTICHE MURA,RM,Roma,Via Leone Iv,51/53,12.4551105,41.9095658,00192,MAI,,
MONTEDORO 94 SRL,CAFFE MONTE D'ORO,RM,Roma,Piazza Di Monte D'oro,91/92,12.476943,41.9047956,00186,MAI,,
MONTI ELISABETTA,ALICE PIZZA,RM,Roma,Via Teulada,61,12.4551811,41.9194397,00195,DOMENICA,,
MONTUORI GIOVANNI,TRATTORIA PIZZERIA DA GIOVANNI,RM,Roma,Via Carlo Citerni,43381,12.4931446,41.8679018,00154,LUNEDI',,
MSM AURORA SRL,BAR RISTORANTE,RM,Roma,Largo Santa Susanna,108,,,00187,DOMENICA,,
MUCELLI GIANCARLO,TECNO PIZZA TAKE AWAY,RM,Roma,Via Zoe Fontana,220,12.606986256058027,41.92805025,00131,SABATO E DOMENICA,,
NAZIONALE SRL,CAFFE' DEL QUIRINALE,RM,Roma,Via Ventiquattro Maggio,49,12.4867669,41.8980055,00187,SABATO E DOMENICA,,
NEW ART GALLERY SRLS,NEW ART GALLERY,RM,Roma,Via Francesco Gai,8,12.4654846,41.9315692,00196,DOMENICA,,
NEW FLAVIA SAS DI SIMEONI MARGHERITA & C.,ALICE PIZZA,RM,Roma,Circonvallazione Appia,450,12.5153411,41.875872,00179,MAI,C/C HAPPIO,
NEW FLAVIA SAS DI SIMEONI MARGHERITA & C.,ALICE PIZZA,RM,Roma,Via Cimino,91,12.5344172,41.9457881,00139,MAI,,
NEW FLAVIA SAS DI SIMEONI MARGHERITA & C.,ALICE PIZZA,RM,Roma,Viale Dei Colli Portuensi,582,12.443919,41.8666232,00151,MAI,,
NEW FLAVIA SAS DI SIMEONI MARGHERITA E C,ALICE PIZZA,RM,Roma,Via Flavia,91,12.4967995,41.9068305,00187,DOMENICA,,
NEW WAY ROMA SRL,HAM HOLY BURGER  RISTORANTE PIZZERIA,RM,Roma,Via Brescia,24/32,12.4999594,41.9122927,00198,MAI,,
NIBBI DAL 1936 SRL,BAR PANINOTECA,RM,Roma,Via Emilia,42/44,12.4884049,41.907899,00187,DOMENICA,,
NICCODIFRA SRL,CONAD,RM,Roma,Via Massa Di San Giuliano,265,12.6951599,41.9033795,00132,DOMENICA,,
NICE BREAK SRL,CAFFE IL DOLLARO,RM,Roma,Circonvallazione Ostiense,355,12.4934056,41.8673282,00154,DOMENICA,,
NIEVO AL 51 SRL,NIEVO AL 51,RM,Roma,Via Ippolito Nievo,51,12.4674265,41.8784339,00153,SABATO,,
NINA SRL,NINA BAR,RM,Roma,Via Flavia,46,12.4967995,41.9068305,00187,MAI,,
NON CI RESTA CHE PIZZA SRL,IL CILENTANO PIZZA,RM,Roma,Via Diego Angeli,40/42,12.5512584,41.9074896,00159,MARTEDI',,
NONNA LIA S. PAOLO SRL,NONNA LIA PANZEROTTI,RM,Roma,Via Gabriello Chiabrera,166/A,12.4793762,41.8542127,00145,DOMENICA,,
NUOVA TURISTICA ROMANA SRL,RISTORANTE LA GROTTA ROMANA,RM,Roma,Via Palestro,93,12.5069418,41.9027291,00185,MAI,,
OASI DUE SRL,PIZZA RUSTICA,RM,Roma,Circonvallazione Ostiense,149,12.4858684,41.8674609,00154,MAI,,
OASI DUE SRL,RISTORANTE DA LUIGI  ORTO DI ROMA,RM,Roma,Via Di Grotta Perfetta,551,12.514968,41.8323737,00142,MAI,,
OBELISCO 15 SRL,PIER,RM,Roma,Piazza Guglielmo Marconi,6,12.4705265,41.8335959,00144,MAI,,
ODEON BAR SNC DI SANNA STEFANO E C.,ODEON BAR,RM,Roma,Via R Bianchi Bandinelli,33,12.5867116,41.817653,00178,DOMENICA,,
OPERA 12 SRL,BAR TRATTORIA IL GROTTINO,RM,Roma,Piazza Di San Bernardo,108,,,00187,MAI,,
OPERE E CAFFE' SRL,OPERE E CAFFE',RM,Roma,Via Della Lungaretta,18,12.4759117,41.8893139,00153,MAI,,
OPERE E CAFFE' SRL,BRUCIA PADELLE,RM,Roma,Piazza Ippolito Nievo,13/14,12.467085707648954,41.87970385,00153,MAI,,
OPERE E CAFFE' SRL,BAR BELLI DAL1938,RM,Roma,Piazza G Gioacchino Belli,4,,,00153,MAI,,
ORIOLO SRL,CONAD,RM,Roma,Corso Francia,124,12.4695182,41.9466939,00191,MAI,,
ORTOPOINT SRL,ORTOPOINT SIGMA,RM,Roma,Via Diego Angeli,112,12.5512584,41.9074896,00159,DOMENICA,,
OSTERIA DEL CURATO DI VISCUSO ANGELO,OMAR BAR,RM,Roma,Via Firenze,28,12.4944882,41.9016626,00184,MAI,,
OTHERSIDE SRL,HAM HOLY BURGER FAST FOOD,RM,Roma,Via Ponte Di Piscina Cupa,SNC,,,00128,MAI,,
OTTO ROMA SRLS,OTTO BAR PIZZERIA,RM,Roma,Via Giuseppe Donati,89/95,12.5501801,41.9073836,00159,MAI,,
OUALLI BOUALEM,PIZZERIA AL BARAKA,RM,Roma,Via San Martino Ai Monti,29,,,00184,MAI,,
P.P. E P. SRLS,RISTORANTE PIZZERIA,RM,Roma,Via Attilio Benigni,34,12.5606632,41.9307686,00156,MAI,,
PAAAST SRL,SERENELLA PIZZA E...,RM,Roma,Via Salaria,70,12.4985167,41.9195328,00198,MAI,,
PADDOCK 2014 SRL,PADDOCK RISTO CAFFE',RM,Roma,Via Portuense,1585A/B,12.4131849,41.845908,00148,SABATO E DOMENICA,,
PALLANTUCCI MASSIMILIANO,PALLANTUCCI BAR,RM,Roma,Via Terni,76/78/80,12.5194364,41.8851397,00182,DOMENICA,,
PALOMBINI EUR SRL,PALOMBINI EUR BAR,RM,Roma,Piazzale Konrad Adenauer,12,12.4676187,41.8364354,00144,MAI,,
PAM FRANCHISING SPA,META',RM,Roma,Via Scribonio Curione,29/35,12.5545008,41.8644337,00175,MAI,,
PANAPESCA SPA,CRIOS,RM,Roma,Viale Repubbliche Marinare,66,12.267615,41.7337767,00121,MAI,,
PANAPESCA SPA,CRIOS,RM,Roma,Via Dei Georgofili,108/118,12.4940063,41.8517908,00147,MAI,,
PANAPESCA SPA,CRIOS,RM,Roma,Via Roberto Malatesta,120,12.5371934,41.8874287,00176,MAI,,
PANCHO SRL,PANCHO CAFFE',RM,Roma,Via Baldassarre Castiglione,78/80,12.4857163,41.8436451,00142,DOMENICA,,
PANDOLFI MAURO,BAR DELLE GRAZIE,RM,Roma,Via Grazie,41974,,,00193,DOMENICA,,
PANTAREI  SRL,TELE BAR FAUSTO,RM,Roma,Via Teulada,47/49/51,12.4551811,41.9194397,00195,SABATO E DOMENICA,,
PAOLUCCI ALESSANDRO,RIO BAR,RM,Roma,Via Gaeta,48,12.6557998,41.4780966,00185,SABATO E DOMENICA,,
PAPERO GIALLO SNC DI R.BERARDI E C.,PAPERO GIALLO,RM,Roma,Via Taranto,64/66,12.517281,41.8840145,00182,MAI,,
PAPILI STEFANO,TRATTORIA DALLA PADELLE ALLA BRATE,RM,Roma,Via Di Ponte Galeria,303,12.3349214,41.8427831,00148,MAI,,
PARIS BAR SRLS,PARIS BAR,RM,Roma,Corso Trieste,132,12.5076679,41.9151535,00198,DOMENICA,,
PAS SRL,VIVO SUPERMERCATI,RM,Roma,Via Della Bufalotta,164,12.5411868,41.9496855,00139,MAI,,
PAS SRL,VIVO SUPERMERCATI,RM,Roma,Via Leopoldo Traversi,36,12.4931446,41.8679018,00154,MAI,,
PASTA IMPERIALE MONTI SRL,PASTA IMPERIALE,RM,Roma,Via Del Boschetto,112,12.4912643,41.8953691,00184,MAI,,
PASTATION ROMA SRL,PASTATION,RM,Roma,Piazza In Campo Marzio,6,12.476224235164928,41.901525899999996,00186,MAI,,
PASTIFICIO RANA SPA,DA GIOVANNI RISTORANTE,RM,Roma,Viale Oceano Pacifico,SNC,12.4972305,41.6298767,00144,MAI,,
PASTITALY SRLS UNINOMINALE,PIZZERIA,RM,Roma,Via Appia Nuova,224,12.5100799,41.8852976,00183,MAI,,
PAZZAMENTE PIZZA DI BOTTONI EMILIANO E CLAUDIO SNC,PAZZAMENTE PIZZA,RM,Roma,Viale Della Grande Muraglia,166/168,12.4556417,41.8227544,00144,DOMENICA,,
PAZZAMENTE PIZZA DI BOTTONI SERGIO,PAZZAMENTE PIZZA DA SERGIO,RM,Roma,Via Alberto Ascari,198,12.5037643,41.8347244,00142,MAI,,
PENTA SUPERMERCATI SRL,CONAD SUPERSTORE MARKET,RM,Roma,Via Del Trullo,100,12.4365771,41.8347459,00148,MAI,,
PEONIA SRLS,BAR MIRAGE,RM,Roma,Via Alessio Baldovinetti,98,12.4945979,41.8317502,00142,MAI,,
PERGEGA SRL,CAPPUCCINO E CORNETTO,RM,Roma,Via Tripolitania,22,12.5235371,41.9302882,00199,DOMENICA,,
PERL FOOD E DRINK SRL,GRAN CAFFE' MAZZINI,RM,Roma,Piazza Giuseppe Mazzini,10,12.4641659,41.9157197,00195,MAI,,
PETITTA EDMONDO,BAR CUBA,RM,Roma,Via Ignazio Giorgi,64,12.5226236,41.918752,00162,DOMENICA,,
PETROCCO LUIGI,CHAMONIX BAR,RM,Roma,Viale Regina Margherita,109,12.5016274,41.9172117,00198,DOMENICA,,
PEWEX AL.PA. SRL,PEWEX SUPERMERCATO,RM,Roma,Viale Paolo Ferdinando Quaglia,120,12.6424248,41.8692573,00133,MAI,,
PEWEX AL.PA. SRL,PEWEX SUPERMERCATO,RM,Roma,Via Di Tor Bella Monaca,469/475,12.6385329,41.8668637,00133,MAI,,
PG ROMA SRL,PANINO GIUSTO,RM,Roma,Piazza Cavour,17/BCD 18,,,00193,MAI,,
PG ROMA SRL,PANINO GIUSTO,RM,Roma,Viale Dell'Oceano Pacifico,83,12.45950934721992,41.817101550000004,00144,MAI,C.C EUROMA 2,
PI NO SRLS,CENTOTRENTAGRAMMI,RM,Roma,Via Cornelio Magni,34,12.4974888,41.8653681,00147,DOMENICA,,
PIAZZA DI SPAGNA SRL,LA BARCACCIA,RM,Roma,Piazza Di Spagna,65,12.4821294,41.9057477,00187,MAI,,
PIAZZA TRILUSSA 43 SRL,PIZZERIA LUIGI,RM,Roma,Via La Spezia,56,12.5144548,41.8861993,00182,MAI,,
PINTA SRL,GASTRONOMIA,RM,Roma,Via Flavia,48/50,12.075345,41.9528497,00187,MAI,,
PINTO FABIANA MARILIA BUONAFINA,MR. KEBAB TURCO ISTANBUL,RM,Roma,Viale Di Trastevere,51,12.4720747,41.886744,00153,MAI,,
PIU BIO 153 SRL,PIU BIO,RM,Roma,Via Tuscolana,1241,12.6002843,41.8370236,00173,MAI,,
PIU BIO 7 SRL,PIU BIO,RM,Roma,Viale Dei Consoli,165,12.5518017,41.8641693,00175,MAI,,
PIU' BIO 72 SRL,PIU' BIO,RM,Roma,Via Dei Ruderi Di Torrenova,23,12.6052531,41.8683966,00133,MAI,,
PIZZA APOLLINARE SRL,PIZZA CIRO,RM,Roma,Via Della Mercede,43/45,12.4821672,41.903293,00187,MAI,,
PIZZA BOOM A.M.N. DI A. MESSALI,PIZZA BOOM ROSTICCERIA FRIGGITORIA,RM,Roma,Viale Di Trastevere,271A/273,,,00153,MAI,,
PIZZA E CACIO DI ATAA SALAMA,PIZZA E CACIO,RM,Roma,Via Andrea Meldola,170/174,12.507107,41.823513,00143,MAI,,
PIZZA SPRINT SRL,SFIZI DI PIZZA,RM,Roma,Via Genova,15,12.4920503,41.8992199,00184,DOMENICA,,
PIZZANDO GRIGLIANDO 97 S.I.R. SRL,PIZZANDO GRIGLIANDO,RM,Roma,Piazzale Jonio,39/C,12.5257838,41.9459476,00141,MAI,,
PIZZERIA M. M. 2 SRL,PIZZERIA M. M. 2,RM,Roma,Via Della Lega Lombarda,16,12.5253453,41.9085614,00162,DOMENICA,,
PIZZERIA ROSTICCERIA RICCI CURZIO,PIZZIAMOCI,RM,Roma,Via Benedetto Croce,129,12.4840372,41.8414371,00142,DOMENICA,,
PLUTO'S PIZZA SNC DI D'AMICO E ZAPPATA,PLUTO'S PIZZA,RM,Roma,Piazza Ragusa,37,12.5234088,41.8812427,00182,MAI,,
PONTE PIZZA 1 SRLS,PONTE PIZZA,RM,Roma,Viale Antonio Ciamarra,183,12.5902893,41.8559673,00173,MAI,,
POTITO' TERESA,GRAN CAFFE' SALANDRA,RM,Roma,Via Antonio Salandra,36/38,12.4951701,41.90592,00187,DOMENICA,,
PRATI 2013 SRLS,PRATI BAR ALIMENTARI,RM,Roma,Viale Giulio Cesare,22/26,12.4568508,41.9090795,00192,SABATO E DOMENICA,,
PRIMOPIANO SRL,HAM HOLY BURGER RISTORANTE,RM,Roma,Piazza Dei Cinquecento,SNC,12.4999429,41.900755,00185,MAI,,
PRO.FOOD E CO. SRL,ANGOLO SCIARRA,RM,Roma,Via Marco Minghetti,8,12.4821649,41.9000287,00187,MAI,,
PRODOTTI DI ECCELLENZA SRL,DON NINO,RM,Roma,Viale Eritrea,103/109,12.5158881,41.9269385,00199,MAI,,
PULCINELLI ALESSANDRO,BAR,RM,Roma,Vicolo Cinque,5,12.4696954,41.8910307,00153,MAI,,
PUNTO EAT SRL,CARREFOUR ECPRESS,RM,Roma,Via Del Governo Vecchio,119,12.4700606,41.8984445,00186,MAI,,
QUADRANI GIOVANNI,BAR QUADRANI,RM,Roma,Viale Trastevere,110,12.3944992,41.7826788,00153,DOMENICA,,
QUATTRO FONTANE DI F.LLI IANNARILLI SNC,BAR GELATERIA PASTICCERIA QUATTRO FONTANE,RM,Roma,Via Quattro Fontane,128,12.4923341,41.9010516,00184,DOMENICA,,
QUATTRO SRLS,QUATTRO,RM,Roma,Via Marche,62,12.4904417,41.9084253,00187,DOMENICA,,
QUICIBO SRL,LA GRANOTECA FAST FOOD,RM,Roma,Via Zoe Fontana,220,12.606986256058027,41.92805025,00131,SABATO E DOMENICA,COMPRENSORIO TECNOCITTA,
R.A.F.SRL,RAF RISTORANTE PIZZERIA,RM,Roma,Via Plinio,17/A,12.4653844,41.9073121,00193,MAI,,
R.C. SRL,MAZZINI CAFFETTERIA,RM,Roma,Viale Giuseppe Mazzini,75,12.4566886,41.9157881,00195,DOMENICA,,
RA.BU. SRLS,SPAGHETTI,RM,Roma,Via Leone Iv,29,12.4551105,41.9095658,00192,MAI,,
RA.BU. SRLS,BOX,RM,Roma,Via Cicerone,29,12.4690202,41.9067463,00193,MAI,,
RA.BU. SRLS,ORTO,RM,Roma,Via Giuseppe Gioacchino Belli,142,12.7171166,41.9584826,00193,MAI,,
RAGU' SRL,ALICE PIZZA TAKE AWAY,RM,Roma,Via Collatina,858,12.6610072,41.9156089,00132,MAI,,
RAM DI LEO ANTONIO E C. SNC,BAR DANTE,RM,Roma,Via Del Corso,259,12.4798279,41.9024271,00186,MAI,,
RAM DI LEO ANTONIO E C. SNC,SOCIETA' RAM DI LEO ANTONIO E C. SNC,RM,Roma,Via Ripetta,72,12.0984514,41.9985604,00186,MAI,,
RAM SRL,VOICE,RM,Roma,Piazza John Fitzgerald Kennedy,13/14,12.5996669,41.8049586,00144,DOMENICA,,
RAMA SAS DI LEO MAURIZIO & C,ESPRESSAMENTE ILLY BAR,RM,Roma,Viale Palmiro Togliatti,2,12.571520021216994,41.853063000000006,00173,MAI,,
RAMI2016 SRLS,PIZZERIA TAVOLA CALDA,RM,Roma,Viale Cesare Pavese,368/370,12.4744966,41.817393,00144,MAI,,
RANIERI ILENIA,EAT AND GO,RM,Roma,Viale Europa,325,12.4691938,41.8308093,00144,SABATO E DOMENICA,,
RARO SRL,FRESCO RISTORANTE PIZZERIA,RM,Roma,Stazione Termini,185,,,00185,MAI,,
RE SAPORE SRL,CHIU' SAPORE,RM,Roma,Via Maputo,2,12.4449047,41.8218846,00144,MAI,,
REAL PIZZA DI MARCO CRISTINA,REAL PIZZA,RM,Roma,Via Alberto Einstein,16,12.4690645,41.8671955,00146,MAI,,
REGINA MARGHERITA SRLS,ANTICA PASTICCERIA,RM,Roma,Viale Regina Margherita,39/41,12.5053302,41.9140578,00198,DOMENICA,,
REGINA SRL,M'BARUZZO,RM,Roma,Piazza Regina Margherita,22,12.5053962,41.9137054,00198,MAI,,
REMO FIERIMONTE,BAR,RM,Roma,Via Giosuè Carducci,26/28/30,12.4941134,41.9062178,00187,DOMENICA,,
REPPA SRL,BAIAMONTI DRINK & FOOD,RM,Roma,Via Antonio Baiamonti,12,12.459963,41.9146559,00195,SABATO E DOMENICA,,
RESTAURANT SAKURA SUSHI SRL,SAKURA SUSHI RESTAURANT,RM,Roma,Porta Pia,122/123,12.501775912526433,41.909606600000004,00187,MAI,,
RICCA AVENTINO SRL,L'INSALATA RICCA,RM,Roma,Piazza Albania,38445,12.4832867,41.8799551,00153,MAI,,
RICCA CHIAVARI SRL,RISTORANTE INSALATA RICCA,RM,Roma,Largo Dei Chiavari,85,12.4739196,41.8963426,00186,MAI,,
RICCA GAZOMETRO SRL,INSALATA RICCA,RM,Roma,Via Gazometro,62,12.4793879,41.8706693,00154,MAI,,
RICCI SRLS,BINARIO 9 3/4,RM,Roma,Via Cicerone,53,12.4687838,41.9071489,00193,MAI,,
RIFRA SRL,TIKI BAR,RM,Roma,Viale America,117-123,12.4694882,41.8293026,00144,MAI,,
RINASCITA S A RLS,PAN BERNARDO,RM,Roma,Piazza Di San Bernardo,112,,,00187,DOMENICA,,
RISPARMIO PIU SRL,RISPARMIO PIU',RM,Roma,Via Borghesiana,332,12.6719091,41.8742724,00132,MAI,,
RISTO ITALIA SRL,I GABBIANI,RM,Roma,Via Vito Volterra,41,12.4708126,41.8545109,00146,MAI,,
RISTO ITALIA SRL,RISTO ITALIA SRL,RM,Roma,Via R Bianchi Bandinelli,130,12.5867116,41.817653,00178,MAI,,
RISTO ITALIA SRL,DON CARLOS,RM,Roma,Piazza Barberini,52,12.4882437,41.9037182,00187,MAI,,
RISTO1 SRLS,PASSIONE PANINO,RM,Roma,Via Enrico Ferri,8,12.599349833988352,41.85117005,00173,MAI,,
RISTO1 SRLS,PASSIONE PANINO,RM,Roma,Viale Avignone,42,12.458412,41.8207394,00144,MAI,,
RISTOCAFFE' SRL,RISTOCAFFE',RM,Roma,Via Cicerone,68,12.4679324,41.9081547,00193,DOMENICA,,
RISTOCENTER SRL,RISTOCENTER BAR TAVOLA CALDA,RM,Roma,Via Zoe Fontana,220,12.606986256058027,41.92805025,00131,SABATO E DOMENICA,CENTRO DIREZIONALE TECNOCITTA' ZONA TIBURTINA,
RISTOFIRENZE SRLS,FEEL GOOD,RM,Roma,Via Firenze,57,12.4944882,41.9016626,00184,MAI,,
RISTOITALIA S.R.L.,L'ANTICA FRASCHETTA,RM,Roma,Via Venezia,17,12.4929515,41.8999585,00184,MAI,,
RISTORANTE JULIE'S  SAS DI CAO GIULIA XUE,RISTORANTE JULIE'S,RM,Roma,Via Palestro,65,12.5069418,41.9027291,00185,DOMENICA,,
RISTOSERVICE SRL,GRAN CAFFE' BONANNI,RM,Roma,Viale Della Grande Muraglia,40/42/44,12.4556417,41.8227544,00144,MAI,,
RO.MA. SAS DI MASSIMO MARCUCCI E C.,IL CHICCO MATTO,RM,Roma,Via Cesena,16,12.5138242,41.8843468,00182,DOMENICA,,
ROAZZI ADELMO,MARGHERITA CONAD,RM,Roma,Via Augusto Dulceri,64/68,12.5342682,41.8849726,00176,DOMENICA,,
ROBERTA CERULLI,BAR TABACCHI,RM,Roma,Via Giosuè Carducci,14,12.4941134,41.9062178,00187,DOMENICA,,
ROBLU SRL,RISTORANTE LA GRANDE BELLEZZA,RM,Roma,Via Flavia,59,12.4967995,41.9068305,00187,MAI,,
ROBY PIZZA SNC DI PALLADINI FRANCESCA & C.,ALICE PIZZA,RM,Roma,Via Marche,21,12.4904417,41.9084253,00187,DOMENICA,,
ROCCA SPA,SMA SUPERMERCATO,RM,Roma,Via Trionfale,10104,12.4277732,41.9373887,00135,MAI,,
ROCCA SPA,SUPERSTORE SMA SUPERMERCATO,RM,Roma,Via Dei Laterani,39/41,12.5030898,41.884141,00184,MAI,,
ROCCA SPA,SMA SUPERMERCATO,RM,Roma,Circonvallazione Appia,190/200,12.5153411,41.875872,00179,MAI,,
ROCCA SPA,SMA SUPERMERCATO,RM,Roma,Viale Beethoven,48,12.4662665,41.832531,00144,MAI,,
ROCCA SPA,SMA SUPERMERCATO,RM,Roma,Piazza Santa Maria Maggiore,5/B,12.6976598,41.6743574,00185,MAI,,
ROGER SERVICE SOC. COOP.,MAMMA PIZZA,RM,Roma,Via Andrea Barbato,31,12.4013906,41.9305093,00168,DOMENICA,C/C TORRESINA,
ROGER SERVICE SOC. COOP.,MAMMA PIZZA,RM,Roma,Via Dei Castani,72,12.566727,41.8826474,00172,DOMENICA,,
ROGER SERVICE SOC. COOP.,MAMMA PIZZA,RM,Roma,Via Ravenna,32,12.51696,41.9132437,00161,DOMENICA,,
ROGER SERVICE SOC. COOP.,MAMMA PIZZA,RM,Roma,Via Borghesiana,253/259,12.6719091,41.8742724,00132,DOMENICA,,
ROGER SERVICE SOC. COOP.,MAMMA PIZZA,RM,Roma,Viale Palmiro Togliatti,1489/A,12.5707704,41.9125739,00155,DOMENICA,,
ROGER SERVICE SOC. COOP.,MAMMA PIZZA,RM,Roma,Via Biagio Petrocelli,240,12.6083329,41.8389711,00173,DOMENICA,,
ROMA FOOD SRL,PANICUNZATO ROMA,RM,Roma,Viale Dell'Oceano Pacifico,83,12.45950934721992,41.817101550000004,00144,MAI,C.COM EUROMA 2,
ROMAMAGNA SNC,PIADINA E CRESCIONE,RM,Roma,Via Venezia,20,12.4925682,41.9001838,00184,LUNEDI' POMERIGGIO,,
ROMANA SRL,FRATELLI LA BUFALA,RM,Roma,Via Delle Vigne Nuove,SNC,12.5355308,41.9640846,00139,MAI,C.C. PORTA DI ROMA,
ROMINA PASQUALONE,GRANGUSTO,RM,Roma,Viale Europa,312,12.4691938,41.8308093,00144,DOMENICA,,
RONCONI AMEDEO,CARNI AMEDEO E VALERIO,RM,Roma,Via Orazio Dello Sbirro,SNC,12.276632,41.7331764,00121,DOMENICA,MERCATO COPERTO BOX 11-12,
ROSATI G. SRL,BAR ROSATI,RM,Roma,Via Sabotino,37,12.4585621,41.9173728,00195,MAI,,
ROSI SRL,CARREFOUR EXPRESS,RM,Roma,Via Capo Palinuro,43381,12.2864679,41.7359147,00122,MAI,,
ROSMARINO AVEZZANA SRL,ROSMARINO AVEZZANA,RM,Roma,Via Giuseppe Avezzana,17,12.466901,41.9160804,00195,DOMENICA,,
ROSSETTI BROS SNC DI ALFONSO & PIETRO ROSSETTI,META',RM,Roma,Via Olivi,54/56/58,,,00171,MAI,,
ROYAL GOURMET SRL,TONY'S RESTURANT,RM,Roma,Via Delle Botteghe Oscure,35,12.4800024,41.8949533,00186,MAI,,
RUSCONI SRL,RUSCONI,RM,Roma,Via Bernardino Alimena,91,12.5979496,41.8484832,00173,DOMENICA,,
RUSSO GIUSEPPE,PIZZERIA RUSSO,RM,Roma,Viale Carso,27,12.4591132,41.9190171,00195,DOMENICA,,
S.A.E.D.A. SRL,CASTRONI BAR,RM,Roma,Via Ottaviano,55,12.4577401,41.9078541,00192,MAI,,
S.LLE OTTAVIANI,S.LLE OTTAVIANI BAR TC,RM,Roma,Via Crescenzio,91/B,12.4659426,41.9055688,00193,DOMENICA,,
S.S.C. SOCIETA' SVILUPPO COMMERCIALE SRL,CARREFOUR SUPERMERCATO,RM,Roma,Viale Luigi Schiavonetti,420/426/432,,,00173,MAI,,
S.S.C. SOCIETA' SVILUPPO COMMERCIALE SRL,CARREFOUR SUPERMERCATO,RM,Roma,Via Dario Niccodemi,1,12.5493477,41.9567354,00137,MAI,,
S.S.C. SOCIETA' SVILUPPO COMMERCIALE SRL,CARREFOUR IPERMERCATO,RM,Roma,Via Enrico Ferri,43,12.6007787,41.8506228,00173,MAI,CENTRO COM.LE LA ROMANINA,
SA.PE. SNC DI PELLE SPARTACO E C.,ER CAFFETTIERE,RM,Roma,Via Urbana,72/73,12.4929144,41.8949856,00184,DOMENICA,,
SA.TO. SRL,CARREFOUR EXPRESS,RM,Roma,Via Carlo Tavolacci,1,12.4713944,41.8857044,00153,MAI,,
SALAMA MOHAMED EID MOBARAK,CAFFE VALADIER,RM,Roma,Via Ennio Quirino Visconti,38,12.4696771,41.9075874,00193,DOMENICA,,
SALOTTO PORTESE SNC DI BELLITTI CATIA E FEDERICA MONTI,ROLLI 1,RM,Roma,Via Ettore Rolli,1,12.4680609,41.8764799,00153,DOMENICA,,
SALSAMENTERIA FABBI SAS,SALSAMENTERIA,RM,Roma,Via Della Croce,27/28,12.4811328,41.9065249,00187,DOMENICA,,
SALUMERIA IL CAPRICCIO DI MICOCCI PAOLO,SALUMERIA IL CAPRICCIO,RM,Roma,Via Raffaele Cadorna,33,12.4985141,41.9085929,00187,DOMENICA,,
SAMA SRL,NON SOLO CAFFE',RM,Roma,Viale Antonio Ciamarra,108/110,12.5902893,41.8559673,00173,LUNEDI',,
SAN BASILIO 2016 SRL,PIM SUPERMERCATO,RM,Roma,Via Casal Tidei,SNC,12.5782145,41.9417969,00156,MAI,,
SANDRO SAS DI F CIABATTINI E C,FORNO CIABATTINI,RM,Roma,Via Di S Croce In Gerusalemme,23,,,00185,DOMENICA POMERIGGIO,,
SANO E SALAD SNC DI FRANCESCO GALLO E DIEGO PARENTE,SANO E SALAD,RM,Roma,Via Cesare Paoletti,28,12.5001516,41.9109151,00198,DOMENICA,,
SANT' ELIA SRL,SIMPLY MARKET,RM,Roma,Via Della Giustiniana,271,12.4705762,42.0079116,00188,MAI,,
SANT' ELIA SRL,SIMPLY MARKET,RM,Roma,Via Aldo Maria Scalise,SNC,12.4109189,41.9817885,00135,MAI,ANGOLO VIA GHERARDI,
SANT' ELIA SRL,SIMPLY MARKET,RM,Roma,Via Dei Monti Di San Paolo,51,12.357608,41.7905006,00126,MAI,,
SANT' ELIA SRL,SIMPLY MARKET,RM,Roma,Via Di Macchia Saponara,251,12.3646753,41.758617,00124,MAI,,
SANT' ELIA SRL,SIMPLY MARKET,RM,Roma,Via Tripoli,134,12.5251062,41.9287891,00199,MAI,,
SANT' ELIA SRL,SIMPLY SUPERMERCATO,RM,Roma,Via Antonio Sant'elia,13,12.484387,41.930954,00197,MAI,,
SAPORE ROMANO 1 SRL,SAPORE ROMANO,RM,Roma,Via Alessandria,150,12.5005346,41.9105957,00198,MAI,,
SCACCHI VALTER,IL FORNETTO DI TRASTEVERE,RM,Roma,Viale Trastevere,128,12.3944992,41.7826788,00153,MAI,,
SCAGNOLI GESTIONI EVENTI SRL,CAFFE' GUAXUPE,RM,Roma,Via Scipioni,197,12.457841,41.9084843,00192,DOMENICA,,
SCALINGI VITTORIO,CAFFE RIT,RM,Roma,Via Calabria,33,12.5607132,42.1186727,00187,SABATO E DOMENICA,,
SCARFO' MARTINO,LE SPECIALITA' DEL FORNO E DELLA TAVOLA,RM,Roma,Via Stimigliano,43379,12.5122879,41.9346793,00199,DOMENICA,,
SCOPELLITI ANTONIO,CAFFÈ DELL' ARCO,RM,Roma,Viale Delle Milizie,88/89,12.4586561,41.9112751,00192,MAI,,
SEDICIDICIOTTO SNC,SEDICIDICIOTTO RISTORANTE,RM,Roma,Via Antoniotto Usodimare,16/18,12.4944923,41.8679824,00154,DOMENICA,,
SEDICIDICIOTTO SNC,PICCHIAPO' PANINOTECA,RM,Roma,Circonvallazione Ostiense,269,12.4934056,41.8673282,00154,DOMENICA,,
SEMAR 3017 SRL,BAR DEI CONGRESSI,RM,Roma,Viale Della Civilta Del Lavoro,126-128,12.4676864,41.8361219,00144,DOMENICA,,
SEME LUC SNC DI LUCIGNANO MANILA & C,GUSTO DI PIZZA,RM,Roma,Via Quintino Sella,47,12.4957291,41.9076898,00187,SABATO E DOMENICA,,
SERENISSIMA RISTORAZIONE SPA,MENSA PRESSO AGENZIA DELLE ENTRATE DI ROMA,RM,Roma,Via Giorgione,159,12.4931693,41.8504131,00147,MAI,,
SERENISSIMA RISTORAZIONE SPA,MENSA PRESSO AGENZIA DELLE ENTRATE DI ROMA,RM,Roma,Via Cristoforo Colombo,426,12.4867546,41.8522768,00145,MAI,,
SERENISSIMA RISTORAZIONE SPA,VICARIATO MENSA,RM,Roma,Via Della Pigna,13/A,12.4782337,41.8970492,00186,MAI,PALAZZO VICARIATO MENSA 1 PIANO,
SERENISSIMA RISTORAZIONE SPA,BAR INTERNO OSPEDALE S. GIOVANNI ADDOLORATA,RM,Roma,Via Dell'Amba Aradam,SNC,12.5014101,41.8845867,00184,MAI,OSPEDALE S. GIOVANNI ADDOLORATA,
SERIST SRL,ENAV SALARIA,RM,Roma,Via Salaria,716,12.50759026139928,41.944762749999995,00138,MAI,,
SERIST SRL,GEDI ROMA,RM,Roma,Via Cristoforo Colombo,90,12.495978,41.8664298,00147,MAI,,
SESAMO GROUP SRLS,SESAMO PIZZA E CUCINA,RM,Roma,Viale Di Trastevere,83,12.4720747,41.886744,00153,MAI,,
SGM SUPERMERCATI SRL,IPERTRISCOUNT SUPERMERCATO,RM,Roma,Via Salaria,1380,12.5181836,41.9996703,00138,MAI,,
SIDEROS SRL,CONAD MARGHERITA,RM,Roma,Via Carmelo Maestrini,251/259,12.4422913,41.7975584,00128,MAI,,
SIDEROS SRL,CONAD CITY SUPERMERCATO,RM,Roma,Via Rosa Guarnieri Carducci,29,12.490796634618171,41.857002949999995,00145,MAI,,
SILMAR SRL,ORANGE CAFE',RM,Roma,Via Garigliano,15,12.5009902,41.9198334,00198,DOMENICA,,
SIRIO DUE SRL,IL FIAMMIFERO STRANO,RM,Roma,Via Lombardia,32,12.4874906,41.907668,00187,DOMENICA,,
SIRIO SPA,BAR INTERNO POLICLINICO TOR VERGATTO TORRE 6,RM,Roma,Viale Oxford,81,12.6303302,41.8581846,00133,MAI,,
SIRIO SPA,BAR INTERNO  OSPEDALE SANT'ANDREA,RM,Roma,Via Di Grottarossa,1035/39,12.4486529,41.9728228,00189,MAI,,
SIRIO SPA,INTERNO POLICLINICO TOR VERGATA PIASTRA BAR,RM,Roma,Viale Oxford,81,12.6303302,41.8581846,00133,MAI,,
SIRIO SPA,BAR INTERNO OSPEDALE SAN FILIPPO NERI EDIFICIO A,RM,Roma,Via Giovanni Martinotti,20,12.4160664,41.9465418,00135,MAI,,
SIT SUPERMERCATI SRL,IPERTRISCOUNT SUPERMERCATO,RM,Roma,Via Di Portonaccio,72,12.5361119,41.902142,00159,MAI,"ANG VIA DOMENICO DE DOMINICIS, 38/A",
SMA SPA,PUNTO SMA SUPERMERCATO,RM,Roma,Via Corsica,13,12.5090945,41.9191576,00198,MAI,,
SMA SPA,SIMPLY SUPERMERCATO,RM,Roma,Via Portuense,97,12.4682308,41.8773782,00153,MAI,,
SMA SPA,SIMPLY SUPERMERCATO,RM,Roma,Via Delle Gondole,SNC,12.2776772,41.7350197,00121,MAI,,
SMA SPA,SMA SUPERMERCATO,RM,Roma,Via Luigi Zambarelli,31,12.4460294,41.8775058,00152,MAI,,
SMA SPA,PUNTO SMA SUPERMERCATO,RM,Roma,Via Dei Platani,175,12.5702159,41.8809592,00172,MAI,,
SMA SPA,PUNTO SMA SUPERMERCATO,RM,Roma,Via Cassia,713,12.4265864,41.9746287,00189,MAI,,
SMA SPA,SMA SUPERMERCATO,RM,Roma,Via Roberto Malatesta,221/237,,,00176,MAI,,
SMA SPA,SIMPLY SUPERMERCATO,RM,Roma,Via Torre Di Mezzavia,101,12.5954084,41.8384027,00173,MAI,,
SMA SPA,PUNTO SMA SUPERMERCATO,RM,Roma,Via Cassia,1822,12.3727745,42.0579159,00123,MAI,,
SMA SPA,SIMPLY SUPERMERCATO,RM,Roma,Via Ponzio Cominio,19,12.55745,41.8603188,00175,MAI,,
SMA SPA,SIMPLY SUPERMERCATO,RM,Roma,Via Biagio Petrocelli,SNC,12.6083329,41.8389711,00173,MAI,,
SMA SPA,SMA SUPERMERCATO,RM,Roma,Via Cesare Ferrero Da Cambiano,82,12.4682197,41.9482811,00191,MAI,,
SMA SPA,SIMPLY SMA SUPERMERCATO,RM,Roma,Via Costanzo Casana,200,12.2681668,41.7387204,00121,MAI,,
SMA SPA,SIMPLY SUPERMERCATO,RM,Roma,Via Acerenza,4/D,12.5522421,41.8418059,00178,MAI,,
SMA SPA,PUNTO SMA SUPERMERCATO,RM,Roma,Via Cassia,865,12.4265864,41.9746287,00189,MAI,,
SMA SPA,SIMPLY SUPERMERCATO,RM,Roma,Piazza Giureconsulti,5,12.4257266,41.9019434,00167,MAI,,
SMA SPA,PUNTO SMA SUPERMERCATO,RM,Roma,Piazza Dei Re Di Roma,15/19,12.5134501,41.881323,00183,MAI,,
SMA SPA,SIMPLY SUPERMERCATO,RM,Roma,Viale Della Primavera,194,12.56021802263739,41.88211365,00172,MAI,,
SMA SPA,PUNTO SMA SUPERMERCATO,RM,Roma,Viale Della Serenissima,16,12.5585646,41.8967934,00177,MAI,,
SMA SPA,PUNTO SMA SUPERMERCATO,RM,Roma,Via Fonteiana,59/73,12.4546502,41.8816509,00152,MAI,,
SMA SPA,SIMPLY SUPERMERCATO,RM,Roma,Via Saponara,220,12.6512153,41.7456533,00125,MAI,,
SMA SPA,PUNTO SMA SUPERMERCATO,RM,Roma,Via Portuense,323,12.4467389,41.8569599,00149,MAI,,
SMA SPA,PUNTO SMA SUPERMERCATO,RM,Roma,C.Ne Gianicolense,SNC,12.452100694422759,41.87667527285082,00152,MAI,,
SMA SPA,MY AUCHAN,RM,Roma,Viale Delle Provincie,156,12.5209455,41.9116299,00162,MAI,,
SMA SPA,PUNTO SMA,RM,Roma,Via Rubicone,39,12.5009902,41.9198334,00198,MAI,,
SMA SPA,PUNTO SMA SUPERMERCATO,RM,Roma,Via Archimede,61,12.4801997,41.9246581,00197,MAI,,
SMA SPA,SIMPLY SUPERMERCATO,RM,Roma,Viale Caduti Per La Resistenza,271,,,00128,MAI,,
SMA SPA,SMA SUPERMERCATO,RM,Roma,Via Due Ponti,190,,,00189,MAI,,
SMA SPA,SIMPLY SUPERMERCATO,RM,Roma,Viale Guglielmo Marconi,176/178,12.4707132,41.8587925,00146,MAI,,
SMA SPA,SIMPLY SUPERMERCATO,RM,Roma,Via Fiume Giallo,43770,12.4283293,41.8109761,00144,MAI,,
SMA SPA,IPERSIMPLY SRUPERMERCATO,RM,Roma,Via Antonio Pacinotti,10,12.4686426,41.8706474,00146,MAI,,
SMA SPA,PUNTO SMA SUPERMERCATO,RM,Roma,Via Di Priscilla,109,12.5093509,41.9299917,00199,MAI,,
SMA SPA,SIMPLY SUPERMERCATO,RM,Roma,Via Amico Aspertini,SNC,12.6265544,41.876473,00133,MAI,,
SMA SPA,PUNTO SMA SUPERMERCATO,RM,Roma,Via Orlando De Tommaso,39,12.4412264,41.9198953,00136,MAI,,
SMA SPA,PUNTO SMA SUPERMERCATO,RM,Roma,Viale Giuseppe Mazzini,153,12.4566886,41.9157881,00195,MAI,,
SMA SPA,SIMPLY SUPERMERCATO,RM,Roma,Via Isole Del Capo Verde,SNC,12.2727971,41.7376548,00121,MAI,,
SMA SPA,PUNTO SMA SUPERMERCATO,RM,Roma,Piazza Bologna,60,12.521327,41.9144018,00162,MAI,,
SMA SPA,PUNTO SMA SUPERMERCATO,RM,Roma,Piazza Pio Xi,20,12.4373365,41.8940832,00165,MAI,,
SMA SPA,SIMPLY SUPERMERCATO,RM,Roma,Via Delle Cave,99/A,12.5323744,41.8717299,00181,MAI,,
SMA SPA,SIMPLY SUPERMERCATO,RM,Roma,Via Anagnina,471,12.6332776,41.805936,00118,MAI,,
SMA SPA,SMA  SUPERMERCATO,RM,Roma,Piazza Minucciano,20,12.514166,41.9529838,00139,MAI,,
SMART SNC DI DARIA ELENA FUA' E MASSIMO CANNATA,SMARTFOOD,RM,Roma,Via Di Piè Di Marmo,19/20,,,00186,DOMENICA,,
SMILE PIZZA SRLS,SMILE PIZZA,RM,Roma,Viale Oceano Indiano,83,12.4976804,41.6315189,00144,MAI,,
SNACK BAR DI SILIPO DAMIANO,SNACK BAR,RM,Roma,Via La Spezia,30/A,12.5144548,41.8861993,00182,DOMENICA,,
SOC. SONNINO 91 SRL,QUELLI DI PIAZZA SONNINO,RM,Roma,Piazza Sidney Sonnino,23,12.4740098,41.8894789,00153,DOMENICA,,
SODIFO SRL,SODIFO,RM,Roma,Largo Esopo,46,12.3465635,41.7445959,00124,MAI,,
SORRISO SRL,GECO,RM,Roma,Piazza Guglielmo Marconi,23,12.4705265,41.8335959,00144,MAI,,
SOUND FOOD SRLS,SOUND FOOD BAR,RM,Roma,Piazza Eugenio Biffi,43445,12.4903439,41.8665227,00154,MAI,,
SOUPER SRL,BIS,RM,Roma,Via Giovanni Vitelleschi,38/40,12.4614851,41.9047693,00193,SABATO E DOMENICA,,
SPACE CAFFE' SRL,CAFFETTERIA GUIDO,RM,Roma,Via Pellegrino Matteucci,58/60,12.4834289,41.8718215,00154,MAI,,
SPAM SRL,CARREFOUR MARKET,RM,Roma,Via Di Valle Muricana,576,12.4786582,42.0096454,00188,MAI,,
SPC SRL,SUPERMERCATO PAM,RM,Roma,Piazza Della Balduina,48,12.4417651,41.919488,00136,MAI,,
SPESA FACILE SRL,RISPARMIO PIU',RM,Roma,Via Benozzo Gozzoli,60,12.490366440195256,41.8344348,00142,DOMENICA POMERIGGIO,,
SPESA FACILE SRL,SPESA FACILE SUPERMERCATO,RM,Roma,Via Tor Dè Schiavi,394,12.5608725,41.8894246,00171,MAI,,
SPLENDORI CLAUDIO,QUELLI DI VIA NIZZA,RM,Roma,Via Nizza,16,12.5002095,41.912433,00198,MAI,,
SQUARCIA ALESSANDRO,MACELLLERIA SQUARCIA,RM,Roma,Via Delle Sette Chiese,18,12.4897412,41.8606313,00145,DOMENICA,,
STAR FOOD 2017 SRLS,STAR FOOD,RM,Roma,Via Andrea Meldola,87/91,12.507107,41.823513,00143,SABATO E DOMENICA,,
START SNC,SPACCIO ALIMENTARE,RM,Roma,Viale Giorgio Ribotta,5,12.4587433,41.8202225,00144,SABATO E DOMENICA,,
STEMAR SRL,CONAD SUPERMERCATO,RM,Roma,Via Di Grottarossa,169,12.4486529,41.9728228,00189,MAI,,
STRAPIZZAMI SRL,STRAPPIZZAMI,RM,Roma,Via Quintino Sella,19/21,12.4957291,41.9076898,00187,SABATO E DOMENICA,,
STRISCIA LA PIZZA SNC,STRISCIA LA PIZZA,RM,Roma,Via Milano,33,12.4896048,41.8994339,00184,MAI,,
SVESS SRL,GRAN CAFFE' SALERNO,RM,Roma,Via Delle Fiamme Gialle,31,12.2916446,41.7342715,00122,MAI,,
T.R.M. GESTIONI SRL,RECAFE',RM,Roma,Piazza Imperatore Augusto,36,12.495508895454545,41.6652019,00186,MAI,,
TACCO SRL,BAR TACCO,RM,Roma,Viale Dello Scalo San Lorenzo,23,12.5161977,41.8936804,00185,DOMENICA,,
TALENTI SRL,CONAD,RM,Roma,Via Ugo Ojetti,SNC,12.5523297,41.9447107,00137,DOMENICA,,
TALIANI SRL,BAR TALIANI,RM,Roma,Via Genova,26/28,12.4917373,41.8996304,00184,MAI,,
TARALLO MARCO,BAR BRAZIL,RM,Roma,Via Rodolfo Lanciani,23,12.5206207,41.9210644,00162,DOMENICA,,
TAVERNA RISORGIMENTO SNC,L' INSALATA RICCA,RM,Roma,Piazza Risorgimento,43223,12.098743984475838,41.998282450000005,00192,MAI,,
TAVERNA ROSSINI SRL,TAVERNA ROSSINI,RM,Roma,Viale Gioacchino Rossini,60,11.7845993,42.1385467,00198,MAI,,
T-BONE 8 SRL,T-BURGER STATION,RM,Roma,Piazza Istria,16,12.5124568,41.9229412,00198,MAI,,
T-BONE 8 SRL,T-BURGER STATION,RM,Roma,Via Appia Nuova,336,12.5216068,41.8757387,00181,MAI,,
T-BONE 8 SRL,T-BURGER STATION,RM,Roma,Via Della Palombella,34/35,12.4765215,41.8981889,00186,MAI,,
